@Olympus/+0900/+0900
$GPGGA,150013.0,2420.0338,N,12409.5899,E,1,,,22.2,M,,M,,*57
$GPRMC,150013.0,A,2420.0338,N,12409.5899,E,,,010523,,*0F
$GPGGA,150043.0,2420.0338,N,12409.5899,E,1,,,22.6,M,,M,,*56
$GPRMC,150043.0,A,2420.0338,N,12409.5899,E,,,010523,,*0A
$GPGGA,150113.0,2420.0349,N,12409.5891,E,1,,,19.6,M,,M,,*54
$GPRMC,150113.0,A,2420.0349,N,12409.5891,E,,,010523,,*00
$GPGGA,150143.0,2420.0349,N,12409.5894,E,1,,,19.9,M,,M,,*5B
$GPRMC,150143.0,A,2420.0349,N,12409.5894,E,,,010523,,*00
$GPGGA,150213.0,2420.0349,N,12409.5896,E,1,,,20.1,M,,M,,*5D
$GPRMC,150213.0,A,2420.0349,N,12409.5896,E,,,010523,,*04
$GPGGA,150243.0,2420.0350,N,12409.5897,E,1,,,20.2,M,,M,,*52
$GPRMC,150243.0,A,2420.0350,N,12409.5897,E,,,010523,,*08
$GPGGA,150313.0,2420.0350,N,12409.5899,E,1,,,20.3,M,,M,,*59
$GPRMC,150313.0,A,2420.0350,N,12409.5899,E,,,010523,,*02
$GPGGA,150343.0,2420.0350,N,12409.5901,E,1,,,20.3,M,,M,,*5C
$GPRMC,150343.0,A,2420.0350,N,12409.5901,E,,,010523,,*07
$GPGGA,150413.0,2420.0366,N,12409.5904,E,1,,,14.1,M,,M,,*5B
$GPRMC,150413.0,A,2420.0366,N,12409.5904,E,,,010523,,*05
$GPGGA,150443.0,2420.0365,N,12409.5914,E,1,,,17.6,M,,M,,*58
$GPRMC,150443.0,A,2420.0365,N,12409.5914,E,,,010523,,*02
$GPGGA,150513.0,2420.0366,N,12409.5915,E,1,,,17.7,M,,M,,*5F
$GPRMC,150513.0,A,2420.0366,N,12409.5915,E,,,010523,,*04
$GPGGA,150543.0,2420.0367,N,12409.5916,E,1,,,16.8,M,,M,,*56
$GPRMC,150543.0,A,2420.0367,N,12409.5916,E,,,010523,,*03
$GPGGA,150613.0,2420.0367,N,12409.5917,E,1,,,18.3,M,,M,,*54
$GPRMC,150613.0,A,2420.0367,N,12409.5917,E,,,010523,,*04
$GPGGA,150643.0,2420.0372,N,12409.5918,E,1,,,17.0,M,,M,,*56
$GPRMC,150643.0,A,2420.0372,N,12409.5918,E,,,010523,,*0A
$GPGGA,150713.1,2420.0372,N,12409.5917,E,1,,,16.3,M,,M,,*5E
$GPRMC,150713.1,A,2420.0372,N,12409.5917,E,,,010523,,*00
$GPGGA,150743.0,2420.0372,N,12409.5917,E,1,,,16.4,M,,M,,*5D
$GPRMC,150743.0,A,2420.0372,N,12409.5917,E,,,010523,,*04
$GPGGA,150813.0,2420.0372,N,12409.5917,E,1,,,17.2,M,,M,,*50
$GPRMC,150813.0,A,2420.0372,N,12409.5917,E,,,010523,,*0E
$GPGGA,150843.0,2420.0368,N,12409.5911,E,1,,,19.5,M,,M,,*51
$GPRMC,150843.0,A,2420.0368,N,12409.5911,E,,,010523,,*06
$GPGGA,150913.0,2420.0369,N,12409.5912,E,1,,,16.5,M,,M,,*58
$GPRMC,150913.0,A,2420.0369,N,12409.5912,E,,,010523,,*00
$GPGGA,150943.0,2420.0371,N,12409.5914,E,1,,,14.0,M,,M,,*55
$GPRMC,150943.0,A,2420.0371,N,12409.5914,E,,,010523,,*0A
$GPGGA,151013.0,2420.0372,N,12409.5915,E,1,,,13.0,M,,M,,*5D
$GPRMC,151013.0,A,2420.0372,N,12409.5915,E,,,010523,,*05
$GPGGA,151043.0,2420.0382,N,12409.5914,E,1,,,11.3,M,,M,,*57
$GPRMC,151043.0,A,2420.0382,N,12409.5914,E,,,010523,,*0E
$GPGGA,151113.0,2420.0382,N,12409.5914,E,1,,,11.8,M,,M,,*58
$GPRMC,151113.0,A,2420.0382,N,12409.5914,E,,,010523,,*0A
$GPGGA,151143.0,2420.0382,N,12409.5914,E,1,,,12.0,M,,M,,*56
$GPRMC,151143.0,A,2420.0382,N,12409.5914,E,,,010523,,*0F
$GPGGA,151213.0,2420.0381,N,12409.5914,E,1,,,13.2,M,,M,,*50
$GPRMC,151213.0,A,2420.0381,N,12409.5914,E,,,010523,,*0A
$GPGGA,151243.0,2420.0378,N,12409.5914,E,1,,,16.8,M,,M,,*5C
$GPRMC,151243.0,A,2420.0378,N,12409.5914,E,,,010523,,*09
$GPGGA,151313.0,2420.0377,N,12409.5913,E,1,,,18.7,M,,M,,*51
$GPRMC,151313.0,A,2420.0377,N,12409.5913,E,,,010523,,*05
$GPGGA,151343.0,2420.0376,N,12409.5913,E,1,,,19.0,M,,M,,*53
$GPRMC,151343.0,A,2420.0376,N,12409.5913,E,,,010523,,*01
$GPGGA,151413.0,2420.0376,N,12409.5912,E,1,,,19.1,M,,M,,*51
$GPRMC,151413.0,A,2420.0376,N,12409.5912,E,,,010523,,*02
$GPGGA,151443.0,2420.0376,N,12409.5912,E,1,,,19.3,M,,M,,*56
$GPRMC,151443.0,A,2420.0376,N,12409.5912,E,,,010523,,*07
$GPGGA,151513.0,2420.0376,N,12409.5911,E,1,,,19.1,M,,M,,*53
$GPRMC,151513.0,A,2420.0376,N,12409.5911,E,,,010523,,*00
$GPGGA,151543.0,2420.0373,N,12409.5906,E,1,,,17.8,M,,M,,*52
$GPRMC,151543.0,A,2420.0373,N,12409.5906,E,,,010523,,*06
$GPGGA,151613.0,2420.0372,N,12409.5906,E,1,,,18.3,M,,M,,*51
$GPRMC,151613.0,A,2420.0372,N,12409.5906,E,,,010523,,*01
$GPGGA,151643.0,2420.0372,N,12409.5906,E,1,,,18.6,M,,M,,*51
$GPRMC,151643.0,A,2420.0372,N,12409.5906,E,,,010523,,*04
$GPGGA,151713.0,2420.0372,N,12409.5906,E,1,,,18.8,M,,M,,*5B
$GPRMC,151713.0,A,2420.0372,N,12409.5906,E,,,010523,,*00
$GPGGA,151743.0,2420.0371,N,12409.5906,E,1,,,19.2,M,,M,,*56
$GPRMC,151743.0,A,2420.0371,N,12409.5906,E,,,010523,,*06
$GPGGA,151813.0,2420.0371,N,12409.5906,E,1,,,19.2,M,,M,,*5C
$GPRMC,151813.0,A,2420.0371,N,12409.5906,E,,,010523,,*0C
$GPGGA,151843.0,2420.0375,N,12409.5907,E,1,,,20.5,M,,M,,*51
$GPRMC,151843.0,A,2420.0375,N,12409.5907,E,,,010523,,*0C
$GPGGA,151913.0,2420.0375,N,12409.5908,E,1,,,19.7,M,,M,,*52
$GPRMC,151913.0,A,2420.0375,N,12409.5908,E,,,010523,,*07
$GPGGA,151943.0,2420.0375,N,12409.5909,E,1,,,19.5,M,,M,,*54
$GPRMC,151943.0,A,2420.0375,N,12409.5909,E,,,010523,,*03
$GPGGA,152013.0,2420.0376,N,12409.5910,E,1,,,19.1,M,,M,,*54
$GPRMC,152013.0,A,2420.0376,N,12409.5910,E,,,010523,,*07
$GPGGA,152043.0,2420.0376,N,12409.5911,E,1,,,18.9,M,,M,,*59
$GPRMC,152043.0,A,2420.0376,N,12409.5911,E,,,010523,,*03
$GPGGA,152113.0,2420.0377,N,12409.5913,E,1,,,17.7,M,,M,,*5F
$GPRMC,152113.0,A,2420.0377,N,12409.5913,E,,,010523,,*04
$GPGGA,152143.0,2420.0378,N,12409.5914,E,1,,,16.5,M,,M,,*51
$GPRMC,152143.0,A,2420.0378,N,12409.5914,E,,,010523,,*09
$GPGGA,152213.0,2420.0378,N,12409.5915,E,1,,,16.4,M,,M,,*57
$GPRMC,152213.0,A,2420.0378,N,12409.5915,E,,,010523,,*0E
$GPGGA,152243.0,2420.0378,N,12409.5915,E,1,,,16.6,M,,M,,*50
$GPRMC,152243.0,A,2420.0378,N,12409.5915,E,,,010523,,*0B
$GPGGA,152313.0,2420.0378,N,12409.5915,E,1,,,16.9,M,,M,,*5B
$GPRMC,152313.0,A,2420.0378,N,12409.5915,E,,,010523,,*0F
$GPGGA,152343.0,2420.0378,N,12409.5916,E,1,,,16.8,M,,M,,*5C
$GPRMC,152343.0,A,2420.0378,N,12409.5916,E,,,010523,,*09
$GPGGA,152413.0,2420.0379,N,12409.5916,E,1,,,16.0,M,,M,,*57
$GPRMC,152413.0,A,2420.0379,N,12409.5916,E,,,010523,,*0A
$GPGGA,152443.0,2420.0379,N,12409.5916,E,1,,,15.5,M,,M,,*54
$GPRMC,152443.0,A,2420.0379,N,12409.5916,E,,,010523,,*0F
$GPGGA,152513.0,2420.0379,N,12409.5916,E,1,,,15.5,M,,M,,*50
$GPRMC,152513.0,A,2420.0379,N,12409.5916,E,,,010523,,*0B
$GPGGA,152543.0,2420.0380,N,12409.5917,E,1,,,14.7,M,,M,,*51
$GPRMC,152543.0,A,2420.0380,N,12409.5917,E,,,010523,,*09
$GPGGA,152613.0,2420.0380,N,12409.5917,E,1,,,14.1,M,,M,,*51
$GPRMC,152613.0,A,2420.0380,N,12409.5917,E,,,010523,,*0F
$GPGGA,152643.0,2420.0380,N,12409.5917,E,1,,,14.0,M,,M,,*55
$GPRMC,152643.0,A,2420.0380,N,12409.5917,E,,,010523,,*0A
$GPGGA,152713.0,2420.0381,N,12409.5917,E,1,,,13.5,M,,M,,*52
$GPRMC,152713.0,A,2420.0381,N,12409.5917,E,,,010523,,*0F
$GPGGA,152743.0,2420.0381,N,12409.5917,E,1,,,13.3,M,,M,,*51
$GPRMC,152743.0,A,2420.0381,N,12409.5917,E,,,010523,,*0A
$GPGGA,152813.0,2420.0394,N,12409.5917,E,1,,,10.3,M,,M,,*5C
$GPRMC,152813.0,A,2420.0394,N,12409.5917,E,,,010523,,*04
$GPGGA,152843.0,2420.0394,N,12409.5917,E,1,,,6.8,M,,M,,*65
$GPRMC,152843.0,A,2420.0394,N,12409.5917,E,,,010523,,*01
$GPGGA,152913.0,2420.0393,N,12409.5916,E,1,,,16.7,M,,M,,*59
$GPRMC,152913.0,A,2420.0393,N,12409.5916,E,,,010523,,*03
$GPGGA,152943.0,2420.0393,N,12409.5916,E,1,,,18.5,M,,M,,*50
$GPRMC,152943.0,A,2420.0393,N,12409.5916,E,,,010523,,*06
$GPGGA,153013.0,2420.0392,N,12409.5915,E,1,,,19.9,M,,M,,*52
$GPRMC,153013.0,A,2420.0392,N,12409.5915,E,,,010523,,*09
$GPGGA,153043.1,2420.0392,N,12409.5915,E,1,,,20.1,M,,M,,*54
$GPRMC,153043.1,A,2420.0392,N,12409.5915,E,,,010523,,*0D
$GPGGA,153113.0,2420.0390,N,12409.5913,E,1,,,23.2,M,,M,,*55
$GPRMC,153113.0,A,2420.0390,N,12409.5913,E,,,010523,,*0C
$GPGGA,153143.0,2420.0389,N,12409.5912,E,1,,,26.3,M,,M,,*5D
$GPRMC,153143.0,A,2420.0389,N,12409.5912,E,,,010523,,*00
$GPGGA,153213.0,2420.0387,N,12409.5911,E,1,,,26.9,M,,M,,*5C
$GPRMC,153213.0,A,2420.0387,N,12409.5911,E,,,010523,,*0B
$GPGGA,153243.0,2420.0388,N,12409.5911,E,1,,,22.7,M,,M,,*5C
$GPRMC,153243.0,A,2420.0388,N,12409.5911,E,,,010523,,*01
$GPGGA,153313.0,2420.0388,N,12409.5911,E,1,,,22.6,M,,M,,*59
$GPRMC,153313.0,A,2420.0388,N,12409.5911,E,,,010523,,*05
$GPGGA,153343.0,2420.0388,N,12409.5910,E,1,,,22.3,M,,M,,*58
$GPRMC,153343.0,A,2420.0388,N,12409.5910,E,,,010523,,*01
$GPGGA,153413.0,2420.0388,N,12409.5910,E,1,,,21.8,M,,M,,*52
$GPRMC,153413.0,A,2420.0388,N,12409.5910,E,,,010523,,*03
$GPGGA,153443.0,2420.0387,N,12409.5911,E,1,,,21.9,M,,M,,*58
$GPRMC,153443.0,A,2420.0387,N,12409.5911,E,,,010523,,*08
$GPGGA,153513.0,2420.0393,N,12409.5905,E,1,,,22.5,M,,M,,*53
$GPRMC,153513.0,A,2420.0393,N,12409.5905,E,,,010523,,*0C
$GPGGA,153543.0,2420.0392,N,12409.5904,E,1,,,22.3,M,,M,,*50
$GPRMC,153543.0,A,2420.0392,N,12409.5904,E,,,010523,,*09
$GPGGA,153613.0,2420.0392,N,12409.5904,E,1,,,22.1,M,,M,,*54
$GPRMC,153613.0,A,2420.0392,N,12409.5904,E,,,010523,,*0F
$GPGGA,153643.0,2420.0393,N,12409.5904,E,1,,,21.5,M,,M,,*57
$GPRMC,153643.0,A,2420.0393,N,12409.5904,E,,,010523,,*0B
$GPGGA,153713.0,2420.0392,N,12409.5903,E,1,,,21.5,M,,M,,*55
$GPRMC,153713.0,A,2420.0392,N,12409.5903,E,,,010523,,*09
$GPGGA,153743.0,2420.0392,N,12409.5903,E,1,,,21.5,M,,M,,*50
$GPRMC,153743.0,A,2420.0392,N,12409.5903,E,,,010523,,*0C
$GPGGA,153813.0,2420.0392,N,12409.5903,E,1,,,21.6,M,,M,,*59
$GPRMC,153813.0,A,2420.0392,N,12409.5903,E,,,010523,,*06
$GPGGA,153843.0,2420.0391,N,12409.5903,E,1,,,21.9,M,,M,,*50
$GPRMC,153843.0,A,2420.0391,N,12409.5903,E,,,010523,,*00
$GPGGA,153913.0,2420.0391,N,12409.5903,E,1,,,22.0,M,,M,,*5E
$GPRMC,153913.0,A,2420.0391,N,12409.5903,E,,,010523,,*04
$GPGGA,153943.0,2420.0391,N,12409.5902,E,1,,,22.2,M,,M,,*58
$GPRMC,153943.0,A,2420.0391,N,12409.5902,E,,,010523,,*00
$GPGGA,154013.0,2420.0390,N,12409.5902,E,1,,,22.4,M,,M,,*54
$GPRMC,154013.0,A,2420.0390,N,12409.5902,E,,,010523,,*0A
$GPGGA,154043.0,2420.0390,N,12409.5902,E,1,,,22.7,M,,M,,*52
$GPRMC,154043.0,A,2420.0390,N,12409.5902,E,,,010523,,*0F
$GPGGA,154113.0,2420.0389,N,12409.5901,E,1,,,23.2,M,,M,,*59
$GPRMC,154113.0,A,2420.0389,N,12409.5901,E,,,010523,,*00
$GPGGA,154143.0,2420.0388,N,12409.5900,E,1,,,24.1,M,,M,,*58
$GPRMC,154143.0,A,2420.0388,N,12409.5900,E,,,010523,,*05
$GPGGA,154213.0,2420.0386,N,12409.5899,E,1,,,25.1,M,,M,,*50
$GPRMC,154213.0,A,2420.0386,N,12409.5899,E,,,010523,,*0C
$GPGGA,154243.0,2420.0385,N,12409.5898,E,1,,,25.6,M,,M,,*50
$GPRMC,154243.0,A,2420.0385,N,12409.5898,E,,,010523,,*0B
$GPGGA,154313.0,2420.0384,N,12409.5897,E,1,,,26.1,M,,M,,*5E
$GPRMC,154313.0,A,2420.0384,N,12409.5897,E,,,010523,,*01
$GPGGA,154343.0,2420.0389,N,12409.5899,E,1,,,25.4,M,,M,,*5E
$GPRMC,154343.0,A,2420.0389,N,12409.5899,E,,,010523,,*07
$GPGGA,154413.0,2420.0387,N,12409.5898,E,1,,,25.7,M,,M,,*50
$GPRMC,154413.0,A,2420.0387,N,12409.5898,E,,,010523,,*0A
$GPGGA,154443.0,2420.0395,N,12409.5887,E,1,,,25.8,M,,M,,*57
$GPRMC,154443.0,A,2420.0395,N,12409.5887,E,,,010523,,*02
$GPGGA,154513.0,2420.0394,N,12409.5886,E,1,,,26.3,M,,M,,*5B
$GPRMC,154513.0,A,2420.0394,N,12409.5886,E,,,010523,,*06
$GPGGA,154543.0,2420.0393,N,12409.5886,E,1,,,26.5,M,,M,,*5F
$GPRMC,154543.0,A,2420.0393,N,12409.5886,E,,,010523,,*04
$GPGGA,154613.0,2420.0393,N,12409.5881,E,1,,,29.6,M,,M,,*52
$GPRMC,154613.0,A,2420.0393,N,12409.5881,E,,,010523,,*05
$GPGGA,154643.0,2420.0392,N,12409.5881,E,1,,,29.6,M,,M,,*56
$GPRMC,154643.0,A,2420.0392,N,12409.5881,E,,,010523,,*01
$GPGGA,154713.0,2420.0392,N,12409.5880,E,1,,,29.8,M,,M,,*5D
$GPRMC,154713.0,A,2420.0392,N,12409.5880,E,,,010523,,*04
$GPGGA,154743.0,2420.0391,N,12409.5880,E,1,,,29.9,M,,M,,*5A
$GPRMC,154743.0,A,2420.0391,N,12409.5880,E,,,010523,,*02
$GPGGA,154813.1,2420.0391,N,12409.5880,E,1,,,29.9,M,,M,,*51
$GPRMC,154813.1,A,2420.0391,N,12409.5880,E,,,010523,,*09
$GPGGA,154843.0,2420.0389,N,12409.5881,E,1,,,30.4,M,,M,,*58
$GPRMC,154843.0,A,2420.0389,N,12409.5881,E,,,010523,,*05
$GPGGA,154913.0,2420.0388,N,12409.5881,E,1,,,30.8,M,,M,,*51
$GPRMC,154913.0,A,2420.0388,N,12409.5881,E,,,010523,,*00
$GPGGA,154943.0,2420.0387,N,12409.5881,E,1,,,31.2,M,,M,,*50
$GPRMC,154943.0,A,2420.0387,N,12409.5881,E,,,010523,,*0A
$GPGGA,155013.0,2420.0386,N,12409.5881,E,1,,,31.7,M,,M,,*59
$GPRMC,155013.0,A,2420.0386,N,12409.5881,E,,,010523,,*06
$GPGGA,155043.0,2420.0385,N,12409.5880,E,1,,,31.8,M,,M,,*51
$GPRMC,155043.0,A,2420.0385,N,12409.5880,E,,,010523,,*01
$GPGGA,155113.0,2420.0385,N,12409.5880,E,1,,,31.8,M,,M,,*55
$GPRMC,155113.0,A,2420.0385,N,12409.5880,E,,,010523,,*05
$GPGGA,155143.0,2420.0384,N,12409.5880,E,1,,,31.7,M,,M,,*5E
$GPRMC,155143.0,A,2420.0384,N,12409.5880,E,,,010523,,*01
$GPGGA,155213.0,2420.0383,N,12409.5880,E,1,,,31.9,M,,M,,*51
$GPRMC,155213.0,A,2420.0383,N,12409.5880,E,,,010523,,*00
$GPGGA,155243.0,2420.0354,N,12409.5883,E,1,,,40.6,M,,M,,*54
$GPRMC,155243.0,A,2420.0354,N,12409.5883,E,,,010523,,*0C
$GPGGA,155313.0,2420.0350,N,12409.5899,E,1,,,45.3,M,,M,,*5F
$GPRMC,155313.0,A,2420.0350,N,12409.5899,E,,,010523,,*07
$GPGGA,155343.0,2420.0349,N,12409.5899,E,1,,,48.4,M,,M,,*58
$GPRMC,155343.0,A,2420.0349,N,12409.5899,E,,,010523,,*0A
$GPGGA,155413.0,2420.0348,N,12409.5899,E,1,,,52.1,M,,M,,*55
$GPRMC,155413.0,A,2420.0348,N,12409.5899,E,,,010523,,*09
$GPGGA,155443.0,2420.0345,N,12409.5894,E,1,,,57.1,M,,M,,*55
$GPRMC,155443.0,A,2420.0345,N,12409.5894,E,,,010523,,*0C
$GPGGA,155513.0,2420.0344,N,12409.5894,E,1,,,58.7,M,,M,,*59
$GPRMC,155513.0,A,2420.0344,N,12409.5894,E,,,010523,,*09
$GPGGA,155543.0,2420.0343,N,12409.5893,E,1,,,58.9,M,,M,,*52
$GPRMC,155543.0,A,2420.0343,N,12409.5893,E,,,010523,,*0C
$GPGGA,155613.0,2420.0343,N,12409.5893,E,1,,,58.3,M,,M,,*5E
$GPRMC,155613.0,A,2420.0343,N,12409.5893,E,,,010523,,*0A
$GPGGA,155643.0,2420.0343,N,12409.5892,E,1,,,57.5,M,,M,,*53
$GPRMC,155643.0,A,2420.0343,N,12409.5892,E,,,010523,,*0E
$GPGGA,155713.0,2420.0341,N,12409.5891,E,1,,,59.3,M,,M,,*5E
$GPRMC,155713.0,A,2420.0341,N,12409.5891,E,,,010523,,*0B
$GPGGA,155743.0,2420.0340,N,12409.5890,E,1,,,58.3,M,,M,,*5A
$GPRMC,155743.0,A,2420.0340,N,12409.5890,E,,,010523,,*0E
$GPGGA,155813.0,2420.0340,N,12409.5889,E,1,,,56.1,M,,M,,*54
$GPRMC,155813.0,A,2420.0340,N,12409.5889,E,,,010523,,*0C
$GPGGA,155843.0,2420.0340,N,12409.5888,E,1,,,54.4,M,,M,,*57
$GPRMC,155843.0,A,2420.0340,N,12409.5888,E,,,010523,,*08
$GPGGA,155913.0,2420.0333,N,12409.5883,E,1,,,45.7,M,,M,,*5F
$GPRMC,155913.0,A,2420.0333,N,12409.5883,E,,,010523,,*03
$GPGGA,155943.0,2420.0333,N,12409.5882,E,1,,,44.8,M,,M,,*55
$GPRMC,155943.0,A,2420.0333,N,12409.5882,E,,,010523,,*07
$GPGGA,160013.0,2420.0333,N,12409.5882,E,1,,,45.0,M,,M,,*56
$GPRMC,160013.0,A,2420.0333,N,12409.5882,E,,,010523,,*0D
$GPGGA,160043.0,2420.0330,N,12409.5878,E,1,,,47.6,M,,M,,*51
$GPRMC,160043.0,A,2420.0330,N,12409.5878,E,,,010523,,*0E
$GPGGA,160113.0,2420.0330,N,12409.5878,E,1,,,48.3,M,,M,,*5F
$GPRMC,160113.0,A,2420.0330,N,12409.5878,E,,,010523,,*0A
$GPGGA,160143.2,2420.0330,N,12409.5878,E,1,,,48.6,M,,M,,*5D
$GPRMC,160143.2,A,2420.0330,N,12409.5878,E,,,010523,,*0D
$GPGGA,160213.0,2420.0330,N,12409.5877,E,1,,,48.4,M,,M,,*54
$GPRMC,160213.0,A,2420.0330,N,12409.5877,E,,,010523,,*06
$GPGGA,160243.0,2420.0331,N,12409.5877,E,1,,,46.5,M,,M,,*5F
$GPRMC,160243.0,A,2420.0331,N,12409.5877,E,,,010523,,*02
$GPGGA,160313.0,2420.0332,N,12409.5877,E,1,,,45.0,M,,M,,*5E
$GPRMC,160313.0,A,2420.0332,N,12409.5877,E,,,010523,,*05
$GPGGA,160343.0,2420.0332,N,12409.5877,E,1,,,45.8,M,,M,,*53
$GPRMC,160343.0,A,2420.0332,N,12409.5877,E,,,010523,,*00
$GPGGA,160413.0,2420.0331,N,12409.5877,E,1,,,46.6,M,,M,,*5F
$GPRMC,160413.0,A,2420.0331,N,12409.5877,E,,,010523,,*01
$GPGGA,160443.0,2420.0327,N,12409.5888,E,1,,,50.7,M,,M,,*5B
$GPRMC,160443.0,A,2420.0327,N,12409.5888,E,,,010523,,*03
$GPGGA,160513.0,2420.0327,N,12409.5888,E,1,,,49.7,M,,M,,*57
$GPRMC,160513.0,A,2420.0327,N,12409.5888,E,,,010523,,*07
$GPGGA,160543.0,2420.0327,N,12409.5887,E,1,,,48.3,M,,M,,*58
$GPRMC,160543.0,A,2420.0327,N,12409.5887,E,,,010523,,*0D
$GPGGA,160613.0,2420.0327,N,12409.5887,E,1,,,47.3,M,,M,,*51
$GPRMC,160613.0,A,2420.0327,N,12409.5887,E,,,010523,,*0B
$GPGGA,160643.0,2420.0320,N,12409.5883,E,1,,,47.2,M,,M,,*56
$GPRMC,160643.0,A,2420.0320,N,12409.5883,E,,,010523,,*0D
$GPGGA,160713.0,2420.0320,N,12409.5882,E,1,,,46.9,M,,M,,*59
$GPRMC,160713.0,A,2420.0320,N,12409.5882,E,,,010523,,*08
$GPGGA,160743.0,2420.0320,N,12409.5882,E,1,,,46.2,M,,M,,*57
$GPRMC,160743.0,A,2420.0320,N,12409.5882,E,,,010523,,*0D
$GPGGA,160813.0,2420.0325,N,12409.5877,E,1,,,48.4,M,,M,,*5A
$GPRMC,160813.0,A,2420.0325,N,12409.5877,E,,,010523,,*08
$GPGGA,160843.0,2420.0324,N,12409.5863,E,1,,,50.8,M,,M,,*5E
$GPRMC,160843.0,A,2420.0324,N,12409.5863,E,,,010523,,*09
$GPGGA,160913.0,2420.0326,N,12409.5863,E,1,,,50.8,M,,M,,*58
$GPRMC,160913.0,A,2420.0326,N,12409.5863,E,,,010523,,*0F
$GPGGA,160943.0,2420.0328,N,12409.5863,E,1,,,50.1,M,,M,,*5A
$GPRMC,160943.0,A,2420.0328,N,12409.5863,E,,,010523,,*04
$GPGGA,161013.0,2420.0330,N,12409.5856,E,1,,,50.1,M,,M,,*58
$GPRMC,161013.0,A,2420.0330,N,12409.5856,E,,,010523,,*06
$GPGGA,161043.0,2420.0332,N,12409.5856,E,1,,,49.3,M,,M,,*55
$GPRMC,161043.0,A,2420.0332,N,12409.5856,E,,,010523,,*01
$GPGGA,161113.0,2420.0335,N,12409.5857,E,1,,,48.3,M,,M,,*56
$GPRMC,161113.0,A,2420.0335,N,12409.5857,E,,,010523,,*03
$GPGGA,161143.0,2420.0335,N,12409.5864,E,1,,,44.2,M,,M,,*5E
$GPRMC,161143.0,A,2420.0335,N,12409.5864,E,,,010523,,*06
$GPGGA,161213.0,2420.0340,N,12409.5865,E,1,,,42.0,M,,M,,*5F
$GPRMC,161213.0,A,2420.0340,N,12409.5865,E,,,010523,,*03
$GPGGA,161243.0,2420.0343,N,12409.5866,E,1,,,39.5,M,,M,,*53
$GPRMC,161243.0,A,2420.0343,N,12409.5866,E,,,010523,,*06
$GPGGA,161313.0,2420.0346,N,12409.5866,E,1,,,35.0,M,,M,,*5B
$GPRMC,161313.0,A,2420.0346,N,12409.5866,E,,,010523,,*07
$GPGGA,161343.1,2420.0348,N,12409.5867,E,1,,,32.3,M,,M,,*54
$GPRMC,161343.1,A,2420.0348,N,12409.5867,E,,,010523,,*0C
$GPGGA,161413.0,2420.0387,N,12409.5885,E,1,,,16.9,M,,M,,*54
$GPRMC,161413.0,A,2420.0387,N,12409.5885,E,,,010523,,*00
$GPGGA,161443.0,2420.0406,N,12409.5898,E,1,,,18.0,M,,M,,*54
$GPRMC,161443.0,A,2420.0406,N,12409.5898,E,,,010523,,*07
$GPGGA,161513.0,2420.0406,N,12409.5898,E,1,,,13.1,M,,M,,*5A
$GPRMC,161513.0,A,2420.0406,N,12409.5898,E,,,010523,,*03
$GPGGA,161543.0,2420.0404,N,12409.5902,E,1,,,13.6,M,,M,,*58
$GPRMC,161543.0,A,2420.0404,N,12409.5902,E,,,010523,,*06
$GPGGA,161613.0,2420.0396,N,12409.5905,E,1,,,16.3,M,,M,,*55
$GPRMC,161613.0,A,2420.0396,N,12409.5905,E,,,010523,,*0B
$GPGGA,161643.0,2420.0396,N,12409.5904,E,1,,,15.8,M,,M,,*59
$GPRMC,161643.0,A,2420.0396,N,12409.5904,E,,,010523,,*0F
$GPGGA,161713.0,2420.0396,N,12409.5904,E,1,,,15.0,M,,M,,*55
$GPRMC,161713.0,A,2420.0396,N,12409.5904,E,,,010523,,*0B
$GPGGA,161743.0,2420.0373,N,12409.5888,E,1,,,20.1,M,,M,,*59
$GPRMC,161743.0,A,2420.0373,N,12409.5888,E,,,010523,,*00
$GPGGA,161813.0,2420.0373,N,12409.5887,E,1,,,21.8,M,,M,,*54
$GPRMC,161813.0,A,2420.0373,N,12409.5887,E,,,010523,,*05
$GPGGA,161843.0,2420.0373,N,12409.5887,E,1,,,19.7,M,,M,,*55
$GPRMC,161843.0,A,2420.0373,N,12409.5887,E,,,010523,,*00
$GPGGA,161913.0,2420.0373,N,12409.5887,E,1,,,20.0,M,,M,,*5C
$GPRMC,161913.0,A,2420.0373,N,12409.5887,E,,,010523,,*04
$GPGGA,161943.0,2420.0373,N,12409.5887,E,1,,,20.9,M,,M,,*50
$GPRMC,161943.0,A,2420.0373,N,12409.5887,E,,,010523,,*01
$GPGGA,162013.0,2420.0372,N,12409.5887,E,1,,,21.7,M,,M,,*51
$GPRMC,162013.0,A,2420.0372,N,12409.5887,E,,,010523,,*0F
$GPGGA,162043.0,2420.0372,N,12409.5887,E,1,,,20.0,M,,M,,*52
$GPRMC,162043.0,A,2420.0372,N,12409.5887,E,,,010523,,*0A
$GPGGA,162113.0,2420.0372,N,12409.5887,E,1,,,19.5,M,,M,,*59
$GPRMC,162113.0,A,2420.0372,N,12409.5887,E,,,010523,,*0E
$GPGGA,162143.0,2420.0373,N,12409.5887,E,1,,,19.1,M,,M,,*59
$GPRMC,162143.0,A,2420.0373,N,12409.5887,E,,,010523,,*0A
$GPGGA,162213.0,2420.0375,N,12409.5889,E,1,,,19.9,M,,M,,*5F
$GPRMC,162213.0,A,2420.0375,N,12409.5889,E,,,010523,,*04
$GPGGA,162243.0,2420.0375,N,12409.5889,E,1,,,19.5,M,,M,,*56
$GPRMC,162243.0,A,2420.0375,N,12409.5889,E,,,010523,,*01
$GPGGA,162313.0,2420.0375,N,12409.5889,E,1,,,20.4,M,,M,,*59
$GPRMC,162313.0,A,2420.0375,N,12409.5889,E,,,010523,,*05
$GPGGA,162343.0,2420.0375,N,12409.5888,E,1,,,20.2,M,,M,,*5B
$GPRMC,162343.0,A,2420.0375,N,12409.5888,E,,,010523,,*01
$GPGGA,162413.0,2420.0374,N,12409.5888,E,1,,,21.3,M,,M,,*58
$GPRMC,162413.0,A,2420.0374,N,12409.5888,E,,,010523,,*02
$GPGGA,162443.0,2420.0374,N,12409.5862,E,1,,,27.5,M,,M,,*59
$GPRMC,162443.0,A,2420.0374,N,12409.5862,E,,,010523,,*03
$GPGGA,162513.0,2420.0380,N,12409.5884,E,1,,,29.9,M,,M,,*5C
$GPRMC,162513.0,A,2420.0380,N,12409.5884,E,,,010523,,*04
$GPGGA,162543.0,2420.0380,N,12409.5884,E,1,,,28.7,M,,M,,*56
$GPRMC,162543.0,A,2420.0380,N,12409.5884,E,,,010523,,*01
$GPGGA,162613.0,2420.0379,N,12409.5884,E,1,,,28.0,M,,M,,*51
$GPRMC,162613.0,A,2420.0379,N,12409.5884,E,,,010523,,*01
$GPGGA,162643.0,2420.0377,N,12409.5884,E,1,,,28.8,M,,M,,*52
$GPRMC,162643.0,A,2420.0377,N,12409.5884,E,,,010523,,*0A
$GPGGA,162713.0,2420.0377,N,12409.5884,E,1,,,27.8,M,,M,,*59
$GPRMC,162713.0,A,2420.0377,N,12409.5884,E,,,010523,,*0E
$GPGGA,162743.0,2420.0376,N,12409.5884,E,1,,,27.0,M,,M,,*55
$GPRMC,162743.0,A,2420.0376,N,12409.5884,E,,,010523,,*0A
$GPGGA,162813.0,2420.0380,N,12409.5878,E,1,,,26.4,M,,M,,*50
$GPRMC,162813.0,A,2420.0380,N,12409.5878,E,,,010523,,*0A
$GPGGA,162843.0,2420.0380,N,12409.5878,E,1,,,25.7,M,,M,,*55
$GPRMC,162843.0,A,2420.0380,N,12409.5878,E,,,010523,,*0F
$GPGGA,162913.0,2420.0380,N,12409.5878,E,1,,,24.4,M,,M,,*53
$GPRMC,162913.0,A,2420.0380,N,12409.5878,E,,,010523,,*0B
$GPGGA,162943.0,2420.0378,N,12409.5878,E,1,,,25.1,M,,M,,*55
$GPRMC,162943.0,A,2420.0378,N,12409.5878,E,,,010523,,*09
$GPGGA,163013.2,2420.0377,N,12409.5878,E,1,,,26.0,M,,M,,*57
$GPRMC,163013.2,A,2420.0377,N,12409.5878,E,,,010523,,*09
$GPGGA,163043.0,2420.0376,N,12409.5877,E,1,,,26.5,M,,M,,*5B
$GPRMC,163043.0,A,2420.0376,N,12409.5877,E,,,010523,,*00
$GPGGA,163113.0,2420.0375,N,12409.5877,E,1,,,26.6,M,,M,,*5F
$GPRMC,163113.0,A,2420.0375,N,12409.5877,E,,,010523,,*07
$GPGGA,163143.0,2420.0375,N,12409.5877,E,1,,,26.3,M,,M,,*5F
$GPRMC,163143.0,A,2420.0375,N,12409.5877,E,,,010523,,*02
$GPGGA,163213.0,2420.0375,N,12409.5876,E,1,,,26.9,M,,M,,*52
$GPRMC,163213.0,A,2420.0375,N,12409.5876,E,,,010523,,*05
$GPGGA,163243.0,2420.0374,N,12409.5875,E,1,,,27.8,M,,M,,*55
$GPRMC,163243.0,A,2420.0374,N,12409.5875,E,,,010523,,*02
$GPGGA,163313.0,2420.0373,N,12409.5873,E,1,,,28.8,M,,M,,*5F
$GPRMC,163313.0,A,2420.0373,N,12409.5873,E,,,010523,,*07
$GPGGA,163343.0,2420.0372,N,12409.5872,E,1,,,28.9,M,,M,,*5B
$GPRMC,163343.0,A,2420.0372,N,12409.5872,E,,,010523,,*02
$GPGGA,163413.0,2420.0371,N,12409.5871,E,1,,,28.7,M,,M,,*57
$GPRMC,163413.0,A,2420.0371,N,12409.5871,E,,,010523,,*00
$GPGGA,163443.0,2420.0372,N,12409.5872,E,1,,,27.8,M,,M,,*52
$GPRMC,163443.0,A,2420.0372,N,12409.5872,E,,,010523,,*05
$GPGGA,163513.0,2420.0372,N,12409.5872,E,1,,,27.0,M,,M,,*5E
$GPRMC,163513.0,A,2420.0372,N,12409.5872,E,,,010523,,*01
$GPGGA,163543.0,2420.0365,N,12409.5882,E,1,,,25.7,M,,M,,*57
$GPRMC,163543.0,A,2420.0365,N,12409.5882,E,,,010523,,*0D
$GPGGA,163613.0,2420.0363,N,12409.5876,E,1,,,27.7,M,,M,,*5E
$GPRMC,163613.0,A,2420.0363,N,12409.5876,E,,,010523,,*06
$GPGGA,163643.0,2420.0363,N,12409.5875,E,1,,,21.6,M,,M,,*5F
$GPRMC,163643.0,A,2420.0363,N,12409.5875,E,,,010523,,*00
$GPGGA,163713.0,2420.0364,N,12409.5875,E,1,,,20.1,M,,M,,*5A
$GPRMC,163713.0,A,2420.0364,N,12409.5875,E,,,010523,,*03
$GPGGA,163743.0,2420.0364,N,12409.5876,E,1,,,18.6,M,,M,,*50
$GPRMC,163743.0,A,2420.0364,N,12409.5876,E,,,010523,,*05
$GPGGA,163813.0,2420.0376,N,12409.5885,E,1,,,10.9,M,,M,,*52
$GPRMC,163813.0,A,2420.0376,N,12409.5885,E,,,010523,,*00
$GPGGA,163843.0,2420.0366,N,12409.5871,E,1,,,16.3,M,,M,,*51
$GPRMC,163843.0,A,2420.0366,N,12409.5871,E,,,010523,,*0F
$GPGGA,163913.0,2420.0365,N,12409.5870,E,1,,,20.7,M,,M,,*56
$GPRMC,163913.0,A,2420.0365,N,12409.5870,E,,,010523,,*09
$GPGGA,163943.0,2420.0364,N,12409.5870,E,1,,,22.0,M,,M,,*57
$GPRMC,163943.0,A,2420.0364,N,12409.5870,E,,,010523,,*0D
$GPGGA,164013.0,2420.0363,N,12409.5870,E,1,,,22.0,M,,M,,*5B
$GPRMC,164013.0,A,2420.0363,N,12409.5870,E,,,010523,,*01
$GPGGA,164043.0,2420.0364,N,12409.5870,E,1,,,21.9,M,,M,,*53
$GPRMC,164043.0,A,2420.0364,N,12409.5870,E,,,010523,,*03
$GPGGA,164113.0,2420.0364,N,12409.5870,E,1,,,20.7,M,,M,,*58
$GPRMC,164113.0,A,2420.0364,N,12409.5870,E,,,010523,,*07
$GPGGA,164143.0,2420.0364,N,12409.5870,E,1,,,20.0,M,,M,,*5A
$GPRMC,164143.0,A,2420.0364,N,12409.5870,E,,,010523,,*02
$GPGGA,164213.0,2420.0362,N,12409.5868,E,1,,,21.4,M,,M,,*56
$GPRMC,164213.0,A,2420.0362,N,12409.5868,E,,,010523,,*0B
$GPGGA,164243.0,2420.0361,N,12409.5874,E,1,,,22.8,M,,M,,*52
$GPRMC,164243.0,A,2420.0361,N,12409.5874,E,,,010523,,*00
$GPGGA,164313.0,2420.0361,N,12409.5873,E,1,,,22.6,M,,M,,*5F
$GPRMC,164313.0,A,2420.0361,N,12409.5873,E,,,010523,,*03
$GPGGA,164343.0,2420.0361,N,12409.5873,E,1,,,22.2,M,,M,,*5E
$GPRMC,164343.0,A,2420.0361,N,12409.5873,E,,,010523,,*06
$GPGGA,164413.0,2420.0361,N,12409.5872,E,1,,,22.8,M,,M,,*57
$GPRMC,164413.0,A,2420.0361,N,12409.5872,E,,,010523,,*05
$GPGGA,164443.0,2420.0360,N,12409.5872,E,1,,,23.5,M,,M,,*5F
$GPRMC,164443.0,A,2420.0360,N,12409.5872,E,,,010523,,*01
$GPGGA,164513.0,2420.0371,N,12409.5872,E,1,,,24.8,M,,M,,*51
$GPRMC,164513.0,A,2420.0371,N,12409.5872,E,,,010523,,*05
$GPGGA,164543.0,2420.0371,N,12409.5874,E,1,,,16.1,M,,M,,*5A
$GPRMC,164543.0,A,2420.0371,N,12409.5874,E,,,010523,,*06
$GPGGA,164613.0,2420.0370,N,12409.5873,E,1,,,19.1,M,,M,,*55
$GPRMC,164613.0,A,2420.0370,N,12409.5873,E,,,010523,,*06
$GPGGA,164643.0,2420.0370,N,12409.5874,E,1,,,19.3,M,,M,,*55
$GPRMC,164643.0,A,2420.0370,N,12409.5874,E,,,010523,,*04
$GPGGA,164713.0,2420.0359,N,12409.5864,E,1,,,23.5,M,,M,,*54
$GPRMC,164713.0,A,2420.0359,N,12409.5864,E,,,010523,,*0A
$GPGGA,164743.0,2420.0360,N,12409.5866,E,1,,,12.8,M,,M,,*56
$GPRMC,164743.0,A,2420.0360,N,12409.5866,E,,,010523,,*07
$GPGGA,164813.0,2420.0360,N,12409.5866,E,1,,,10.6,M,,M,,*50
$GPRMC,164813.0,A,2420.0360,N,12409.5866,E,,,010523,,*0D
$GPGGA,164843.0,2420.0360,N,12409.5866,E,1,,,10.0,M,,M,,*53
$GPRMC,164843.0,A,2420.0360,N,12409.5866,E,,,010523,,*08
$GPGGA,164913.0,2420.0361,N,12409.5866,E,1,,,8.5,M,,M,,*6A
$GPRMC,164913.0,A,2420.0361,N,12409.5866,E,,,010523,,*0D
$GPGGA,164943.0,2420.0355,N,12409.5865,E,1,,,9.1,M,,M,,*6E
$GPRMC,164943.0,A,2420.0355,N,12409.5865,E,,,010523,,*0C
$GPGGA,165013.0,2420.0359,N,12409.5864,E,1,,,9.7,M,,M,,*68
$GPRMC,165013.0,A,2420.0359,N,12409.5864,E,,,010523,,*0C
$GPGGA,165043.0,2420.0358,N,12409.5864,E,1,,,9.9,M,,M,,*62
$GPRMC,165043.0,A,2420.0358,N,12409.5864,E,,,010523,,*08
$GPGGA,165113.0,2420.0357,N,12409.5864,E,1,,,10.0,M,,M,,*58
$GPRMC,165113.0,A,2420.0357,N,12409.5864,E,,,010523,,*03
$GPGGA,165143.0,2420.0352,N,12409.5864,E,1,,,9.6,M,,M,,*66
$GPRMC,165143.0,A,2420.0352,N,12409.5864,E,,,010523,,*03
$GPGGA,165213.0,2420.0343,N,12409.5863,E,1,,,9.1,M,,M,,*60
$GPRMC,165213.0,A,2420.0343,N,12409.5863,E,,,010523,,*02
$GPGGA,165243.0,2420.0343,N,12409.5863,E,1,,,9.0,M,,M,,*64
$GPRMC,165243.0,A,2420.0343,N,12409.5863,E,,,010523,,*07
$GPGGA,165313.0,2420.0339,N,12409.5864,E,1,,,8.6,M,,M,,*6D
$GPRMC,165313.0,A,2420.0339,N,12409.5864,E,,,010523,,*09
$GPGGA,165343.0,2420.0338,N,12409.5864,E,1,,,9.6,M,,M,,*68
$GPRMC,165343.0,A,2420.0338,N,12409.5864,E,,,010523,,*0D
$GPGGA,165413.0,2420.0356,N,12409.5861,E,1,,,15.1,M,,M,,*5D
$GPRMC,165413.0,A,2420.0356,N,12409.5861,E,,,010523,,*02
$GPGGA,165443.0,2420.0356,N,12409.5861,E,1,,,17.5,M,,M,,*5E
$GPRMC,165443.0,A,2420.0356,N,12409.5861,E,,,010523,,*07
$GPGGA,165513.0,2420.0356,N,12409.5860,E,1,,,18.2,M,,M,,*53
$GPRMC,165513.0,A,2420.0356,N,12409.5860,E,,,010523,,*02
$GPGGA,165543.1,2420.0355,N,12409.5860,E,1,,,18.7,M,,M,,*51
$GPRMC,165543.1,A,2420.0355,N,12409.5860,E,,,010523,,*05
$GPGGA,165613.0,2420.0355,N,12409.5860,E,1,,,15.3,M,,M,,*5F
$GPRMC,165613.0,A,2420.0355,N,12409.5860,E,,,010523,,*02
$GPGGA,165643.1,2420.0356,N,12409.5861,E,1,,,13.8,M,,M,,*54
$GPRMC,165643.1,A,2420.0356,N,12409.5861,E,,,010523,,*04
$GPGGA,165713.0,2420.0362,N,12409.5860,E,1,,,14.5,M,,M,,*5D
$GPRMC,165713.0,A,2420.0362,N,12409.5860,E,,,010523,,*07
$GPGGA,165743.0,2420.0362,N,12409.5860,E,1,,,15.2,M,,M,,*5E
$GPRMC,165743.0,A,2420.0362,N,12409.5860,E,,,010523,,*02
$GPGGA,165813.0,2420.0362,N,12409.5860,E,1,,,15.6,M,,M,,*50
$GPRMC,165813.0,A,2420.0362,N,12409.5860,E,,,010523,,*08
$GPGGA,165843.0,2420.0362,N,12409.5860,E,1,,,16.8,M,,M,,*58
$GPRMC,165843.0,A,2420.0362,N,12409.5860,E,,,010523,,*0D
$GPGGA,165913.0,2420.0361,N,12409.5859,E,1,,,18.0,M,,M,,*53
$GPRMC,165913.0,A,2420.0361,N,12409.5859,E,,,010523,,*00
$GPGGA,165943.0,2420.0361,N,12409.5859,E,1,,,17.8,M,,M,,*51
$GPRMC,165943.0,A,2420.0361,N,12409.5859,E,,,010523,,*05
$GPGGA,170013.0,2420.0355,N,12409.5860,E,1,,,16.4,M,,M,,*59
$GPRMC,170013.0,A,2420.0355,N,12409.5860,E,,,010523,,*00
$GPGGA,170043.0,2420.0355,N,12409.5860,E,1,,,16.8,M,,M,,*50
$GPRMC,170043.0,A,2420.0355,N,12409.5860,E,,,010523,,*05
$GPGGA,170113.0,2420.0355,N,12409.5860,E,1,,,16.5,M,,M,,*59
$GPRMC,170113.0,A,2420.0355,N,12409.5860,E,,,010523,,*01
$GPGGA,170143.0,2420.0352,N,12409.5858,E,1,,,17.5,M,,M,,*51
$GPRMC,170143.0,A,2420.0352,N,12409.5858,E,,,010523,,*08
$GPGGA,170213.0,2420.0336,N,12409.5857,E,1,,,16.9,M,,M,,*57
$GPRMC,170213.0,A,2420.0336,N,12409.5857,E,,,010523,,*03
$GPGGA,170243.0,2420.0336,N,12409.5857,E,1,,,19.9,M,,M,,*5D
$GPRMC,170243.0,A,2420.0336,N,12409.5857,E,,,010523,,*06
$GPGGA,170313.0,2420.0336,N,12409.5858,E,1,,,21.6,M,,M,,*52
$GPRMC,170313.0,A,2420.0336,N,12409.5858,E,,,010523,,*0D
$GPGGA,170343.0,2420.0331,N,12409.5860,E,1,,,21.0,M,,M,,*5D
$GPRMC,170343.0,A,2420.0331,N,12409.5860,E,,,010523,,*04
$GPGGA,170413.0,2420.0331,N,12409.5870,E,1,,,18.7,M,,M,,*53
$GPRMC,170413.0,A,2420.0331,N,12409.5870,E,,,010523,,*07
$GPGGA,170443.0,2420.0331,N,12409.5870,E,1,,,17.8,M,,M,,*56
$GPRMC,170443.0,A,2420.0331,N,12409.5870,E,,,010523,,*02
$GPGGA,170513.0,2420.0331,N,12409.5870,E,1,,,17.1,M,,M,,*5B
$GPRMC,170513.0,A,2420.0331,N,12409.5870,E,,,010523,,*06
$GPGGA,170543.0,2420.0327,N,12409.5874,E,1,,,17.5,M,,M,,*59
$GPRMC,170543.0,A,2420.0327,N,12409.5874,E,,,010523,,*00
$GPGGA,170613.0,2420.0327,N,12409.5873,E,1,,,17.2,M,,M,,*5F
$GPRMC,170613.0,A,2420.0327,N,12409.5873,E,,,010523,,*01
$GPGGA,170643.0,2420.0327,N,12409.5873,E,1,,,17.5,M,,M,,*5D
$GPRMC,170643.0,A,2420.0327,N,12409.5873,E,,,010523,,*04
$GPGGA,170713.0,2420.0327,N,12409.5873,E,1,,,17.7,M,,M,,*5B
$GPRMC,170713.0,A,2420.0327,N,12409.5873,E,,,010523,,*00
$GPGGA,170743.0,2420.0328,N,12409.5873,E,1,,,16.8,M,,M,,*5F
$GPRMC,170743.0,A,2420.0328,N,12409.5873,E,,,010523,,*0A
$GPGGA,170813.0,2420.0335,N,12409.5870,E,1,,,16.7,M,,M,,*55
$GPRMC,170813.0,A,2420.0335,N,12409.5870,E,,,010523,,*0F
$GPGGA,170843.0,2420.0335,N,12409.5870,E,1,,,16.2,M,,M,,*55
$GPRMC,170843.0,A,2420.0335,N,12409.5870,E,,,010523,,*0A
$GPGGA,170913.0,2420.0335,N,12409.5870,E,1,,,15.7,M,,M,,*57
$GPRMC,170913.0,A,2420.0335,N,12409.5870,E,,,010523,,*0E
$GPGGA,170943.0,2420.0336,N,12409.5870,E,1,,,15.8,M,,M,,*5E
$GPRMC,170943.0,A,2420.0336,N,12409.5870,E,,,010523,,*08
$GPGGA,171013.0,2420.0336,N,12409.5870,E,1,,,15.5,M,,M,,*5E
$GPRMC,171013.0,A,2420.0336,N,12409.5870,E,,,010523,,*05
$GPGGA,171043.0,2420.0336,N,12409.5870,E,1,,,15.7,M,,M,,*59
$GPRMC,171043.0,A,2420.0336,N,12409.5870,E,,,010523,,*00
$GPGGA,171113.0,2420.0336,N,12409.5871,E,1,,,14.9,M,,M,,*53
$GPRMC,171113.0,A,2420.0336,N,12409.5871,E,,,010523,,*05
$GPGGA,171143.0,2420.0337,N,12409.5871,E,1,,,14.5,M,,M,,*5B
$GPRMC,171143.0,A,2420.0337,N,12409.5871,E,,,010523,,*01
$GPGGA,171213.0,2420.0337,N,12409.5871,E,1,,,14.6,M,,M,,*5E
$GPRMC,171213.0,A,2420.0337,N,12409.5871,E,,,010523,,*07
$GPGGA,171243.0,2420.0336,N,12409.5871,E,1,,,14.7,M,,M,,*5B
$GPRMC,171243.0,A,2420.0336,N,12409.5871,E,,,010523,,*03
$GPGGA,171313.0,2420.0336,N,12409.5871,E,1,,,14.8,M,,M,,*50
$GPRMC,171313.0,A,2420.0336,N,12409.5871,E,,,010523,,*07
$GPGGA,171343.0,2420.0337,N,12409.5871,E,1,,,14.6,M,,M,,*5A
$GPRMC,171343.0,A,2420.0337,N,12409.5871,E,,,010523,,*03
$GPGGA,171413.0,2420.0337,N,12409.5871,E,1,,,14.2,M,,M,,*5C
$GPRMC,171413.0,A,2420.0337,N,12409.5871,E,,,010523,,*01
$GPGGA,171443.0,2420.0338,N,12409.5871,E,1,,,13.5,M,,M,,*56
$GPRMC,171443.0,A,2420.0338,N,12409.5871,E,,,010523,,*0B
$GPGGA,171513.0,2420.0339,N,12409.5872,E,1,,,13.1,M,,M,,*54
$GPRMC,171513.0,A,2420.0339,N,12409.5872,E,,,010523,,*0D
$GPGGA,171543.0,2420.0340,N,12409.5872,E,1,,,12.6,M,,M,,*59
$GPRMC,171543.0,A,2420.0340,N,12409.5872,E,,,010523,,*06
$GPGGA,171613.0,2420.0341,N,12409.5872,E,1,,,12.3,M,,M,,*5B
$GPRMC,171613.0,A,2420.0341,N,12409.5872,E,,,010523,,*01
$GPGGA,171643.0,2420.0341,N,12409.5872,E,1,,,12.2,M,,M,,*5F
$GPRMC,171643.0,A,2420.0341,N,12409.5872,E,,,010523,,*04
$GPGGA,171713.1,2420.0337,N,12409.5871,E,1,,,12.9,M,,M,,*53
$GPRMC,171713.1,A,2420.0337,N,12409.5871,E,,,010523,,*03
$GPGGA,171743.0,2420.0341,N,12409.5865,E,1,,,13.8,M,,M,,*53
$GPRMC,171743.0,A,2420.0341,N,12409.5865,E,,,010523,,*03
$GPGGA,171813.0,2420.0341,N,12409.5865,E,1,,,13.8,M,,M,,*59
$GPRMC,171813.0,A,2420.0341,N,12409.5865,E,,,010523,,*09
$GPGGA,171843.0,2420.0341,N,12409.5865,E,1,,,13.6,M,,M,,*52
$GPRMC,171843.0,A,2420.0341,N,12409.5865,E,,,010523,,*0C
$GPGGA,171913.0,2420.0341,N,12409.5865,E,1,,,13.6,M,,M,,*56
$GPRMC,171913.0,A,2420.0341,N,12409.5865,E,,,010523,,*08
$GPGGA,171943.0,2420.0341,N,12409.5865,E,1,,,13.5,M,,M,,*50
$GPRMC,171943.0,A,2420.0341,N,12409.5865,E,,,010523,,*0D
$GPGGA,172013.0,2420.0341,N,12409.5865,E,1,,,13.4,M,,M,,*5E
$GPRMC,172013.0,A,2420.0341,N,12409.5865,E,,,010523,,*02
$GPGGA,172043.0,2420.0342,N,12409.5865,E,1,,,13.4,M,,M,,*58
$GPRMC,172043.0,A,2420.0342,N,12409.5865,E,,,010523,,*04
$GPGGA,172113.0,2420.0342,N,12409.5865,E,1,,,13.5,M,,M,,*5D
$GPRMC,172113.0,A,2420.0342,N,12409.5865,E,,,010523,,*00
$GPGGA,172143.0,2420.0345,N,12409.5856,E,1,,,15.4,M,,M,,*58
$GPRMC,172143.0,A,2420.0345,N,12409.5856,E,,,010523,,*02
$GPGGA,172213.0,2420.0345,N,12409.5856,E,1,,,15.2,M,,M,,*58
$GPRMC,172213.0,A,2420.0345,N,12409.5856,E,,,010523,,*04
$GPGGA,172243.0,2420.0347,N,12409.5842,E,1,,,16.1,M,,M,,*5A
$GPRMC,172243.0,A,2420.0347,N,12409.5842,E,,,010523,,*06
$GPGGA,172313.0,2420.0354,N,12409.5848,E,1,,,14.7,M,,M,,*52
$GPRMC,172313.0,A,2420.0354,N,12409.5848,E,,,010523,,*0A
$GPGGA,172343.0,2420.0354,N,12409.5848,E,1,,,14.7,M,,M,,*57
$GPRMC,172343.0,A,2420.0354,N,12409.5848,E,,,010523,,*0F
$GPGGA,172413.0,2420.0354,N,12409.5848,E,1,,,14.5,M,,M,,*57
$GPRMC,172413.0,A,2420.0354,N,12409.5848,E,,,010523,,*0D
$GPGGA,172443.0,2420.0354,N,12409.5848,E,1,,,14.7,M,,M,,*50
$GPRMC,172443.0,A,2420.0354,N,12409.5848,E,,,010523,,*08
$GPGGA,172513.0,2420.0354,N,12409.5849,E,1,,,14.5,M,,M,,*57
$GPRMC,172513.0,A,2420.0354,N,12409.5849,E,,,010523,,*0D
$GPGGA,172543.0,2420.0360,N,12409.5848,E,1,,,12.2,M,,M,,*55
$GPRMC,172543.0,A,2420.0360,N,12409.5848,E,,,010523,,*0E
$GPGGA,172613.0,2420.0361,N,12409.5848,E,1,,,11.1,M,,M,,*52
$GPRMC,172613.0,A,2420.0361,N,12409.5848,E,,,010523,,*09
$GPGGA,172643.0,2420.0336,N,12409.5854,E,1,,,18.2,M,,M,,*52
$GPRMC,172643.0,A,2420.0336,N,12409.5854,E,,,010523,,*03
$GPGGA,172713.0,2420.0336,N,12409.5854,E,1,,,17.2,M,,M,,*59
$GPRMC,172713.0,A,2420.0336,N,12409.5854,E,,,010523,,*07
$GPGGA,172743.0,2420.0337,N,12409.5855,E,1,,,14.4,M,,M,,*59
$GPRMC,172743.0,A,2420.0337,N,12409.5855,E,,,010523,,*02
$GPGGA,172813.0,2420.0338,N,12409.5855,E,1,,,13.0,M,,M,,*5F
$GPRMC,172813.0,A,2420.0338,N,12409.5855,E,,,010523,,*07
$GPGGA,172843.0,2420.0339,N,12409.5855,E,1,,,12.8,M,,M,,*52
$GPRMC,172843.0,A,2420.0339,N,12409.5855,E,,,010523,,*03
$GPGGA,172913.0,2420.0340,N,12409.5856,E,1,,,12.6,M,,M,,*55
$GPRMC,172913.0,A,2420.0340,N,12409.5856,E,,,010523,,*0A
$GPGGA,172943.0,2420.0340,N,12409.5856,E,1,,,13.2,M,,M,,*55
$GPRMC,172943.0,A,2420.0340,N,12409.5856,E,,,010523,,*0F
$GPGGA,173013.0,2420.0381,N,12409.5824,E,1,,,15.0,M,,M,,*54
$GPRMC,173013.0,A,2420.0381,N,12409.5824,E,,,010523,,*0A
$GPGGA,173043.0,2420.0381,N,12409.5825,E,1,,,14.1,M,,M,,*50
$GPRMC,173043.0,A,2420.0381,N,12409.5825,E,,,010523,,*0E
$GPGGA,173113.0,2420.0390,N,12409.5811,E,1,,,14.3,M,,M,,*51
$GPRMC,173113.0,A,2420.0390,N,12409.5811,E,,,010523,,*0D
$GPGGA,173143.0,2420.0389,N,12409.5812,E,1,,,13.8,M,,M,,*53
$GPRMC,173143.0,A,2420.0389,N,12409.5812,E,,,010523,,*03
$GPGGA,173213.0,2420.0388,N,12409.5813,E,1,,,15.4,M,,M,,*5F
$GPRMC,173213.0,A,2420.0388,N,12409.5813,E,,,010523,,*05
