@Olympus/+0900/+0900
$GPGGA,001814.4,2433.0410,N,12420.0689,E,1,,,-3.0,M,,M,,*4B
$GPRMC,001814.4,A,2433.0410,N,12420.0689,E,,,290423,,*04
$GPGGA,001844.0,2433.1944,N,12420.1740,E,1,,,14.7,M,,M,,*5E
$GPRMC,001844.0,A,2433.1944,N,12420.1740,E,,,290423,,*0D
$GPGGA,001914.0,2433.3435,N,12420.3007,E,1,,,12.0,M,,M,,*54
$GPRMC,001914.0,A,2433.3435,N,12420.3007,E,,,290423,,*06
$GPGGA,001944.0,2433.4888,N,12420.4245,E,1,,,12.5,M,,M,,*5A
$GPRMC,001944.0,A,2433.4888,N,12420.4245,E,,,290423,,*0D
$GPGGA,002014.0,2433.6313,N,12420.5615,E,1,,,8.6,M,,M,,*66
$GPRMC,002014.0,A,2433.6313,N,12420.5615,E,,,290423,,*09
$GPGGA,002044.0,2433.7826,N,12420.6897,E,1,,,10.1,M,,M,,*56
$GPRMC,002044.0,A,2433.7826,N,12420.6897,E,,,290423,,*07
$GPGGA,002114.0,2433.9291,N,12420.8262,E,1,,,11.0,M,,M,,*54
$GPRMC,002114.0,A,2433.9291,N,12420.8262,E,,,290423,,*05
$GPGGA,002144.0,2434.0507,N,12420.9292,E,1,,,11.1,M,,M,,*58
$GPRMC,002144.0,A,2434.0507,N,12420.9292,E,,,290423,,*08
$GPGGA,002332.3,2434.2078,N,12420.9733,E,1,,,23.2,M,,M,,*5B
$GPRMC,002332.3,A,2434.2078,N,12420.9733,E,,,290423,,*09
$GPGGA,002402.0,2434.1645,N,12421.0160,E,1,,,16.8,M,,M,,*53
$GPRMC,002402.0,A,2434.1645,N,12421.0160,E,,,290423,,*0D
$GPGGA,002432.6,2434.1759,N,12421.0160,E,1,,,5.8,M,,M,,*68
$GPRMC,002432.6,A,2434.1759,N,12421.0160,E,,,290423,,*04
$GPGGA,002502.0,2434.1853,N,12421.0161,E,1,,,9.1,M,,M,,*6D
$GPRMC,002502.0,A,2434.1853,N,12421.0161,E,,,290423,,*04
$GPGGA,002532.0,2434.1951,N,12421.0166,E,1,,,7.7,M,,M,,*62
$GPRMC,002532.0,A,2434.1951,N,12421.0166,E,,,290423,,*03
$GPGGA,002602.0,2434.2055,N,12421.0166,E,1,,,7.2,M,,M,,*69
$GPRMC,002602.0,A,2434.2055,N,12421.0166,E,,,290423,,*0D
$GPGGA,002632.0,2434.2155,N,12421.0166,E,1,,,7.5,M,,M,,*6C
$GPRMC,002632.0,A,2434.2155,N,12421.0166,E,,,290423,,*0F
$GPGGA,002702.0,2434.2254,N,12421.0167,E,1,,,8.5,M,,M,,*62
$GPRMC,002702.0,A,2434.2254,N,12421.0167,E,,,290423,,*0E
$GPGGA,002732.0,2434.2355,N,12421.0159,E,1,,,11.1,M,,M,,*50
$GPRMC,002732.0,A,2434.2355,N,12421.0159,E,,,290423,,*00
$GPGGA,002802.0,2434.2454,N,12421.0154,E,1,,,12.7,M,,M,,*52
$GPRMC,002802.0,A,2434.2454,N,12421.0154,E,,,290423,,*07
$GPGGA,002832.0,2434.2552,N,12421.0150,E,1,,,12.7,M,,M,,*52
$GPRMC,002832.0,A,2434.2552,N,12421.0150,E,,,290423,,*07
$GPGGA,002902.0,2434.2680,N,12421.0191,E,1,,,14.2,M,,M,,*52
$GPRMC,002902.0,A,2434.2680,N,12421.0191,E,,,290423,,*04
$GPGGA,002932.0,2434.2564,N,12421.0460,E,1,,,16.0,M,,M,,*53
$GPRMC,002932.0,A,2434.2564,N,12421.0460,E,,,290423,,*05
$GPGGA,003002.0,2434.2383,N,12421.0364,E,1,,,14.9,M,,M,,*5F
$GPRMC,003002.0,A,2434.2383,N,12421.0364,E,,,290423,,*02
$GPGGA,003032.0,2434.2280,N,12421.0301,E,1,,,15.4,M,,M,,*51
$GPRMC,003032.0,A,2434.2280,N,12421.0301,E,,,290423,,*00
$GPGGA,003102.0,2434.2315,N,12421.0265,E,1,,,15.0,M,,M,,*59
$GPRMC,003102.0,A,2434.2315,N,12421.0265,E,,,290423,,*0C
$GPGGA,003132.0,2434.2418,N,12421.0249,E,1,,,14.8,M,,M,,*57
$GPRMC,003132.0,A,2434.2418,N,12421.0249,E,,,290423,,*0B
$GPGGA,003202.0,2434.2175,N,12421.0032,E,1,,,11.0,M,,M,,*5A
$GPRMC,003202.0,A,2434.2175,N,12421.0032,E,,,290423,,*0B
$GPGGA,003232.0,2434.1846,N,12420.9848,E,1,,,11.0,M,,M,,*5E
$GPRMC,003232.0,A,2434.1846,N,12420.9848,E,,,290423,,*0F
$GPGGA,003302.0,2434.1492,N,12420.9734,E,1,,,12.8,M,,M,,*56
$GPRMC,003302.0,A,2434.1492,N,12420.9734,E,,,290423,,*0C
$GPGGA,003332.0,2434.1145,N,12420.9628,E,1,,,15.0,M,,M,,*59
$GPRMC,003332.0,A,2434.1145,N,12420.9628,E,,,290423,,*0C
$GPGGA,003402.0,2434.0804,N,12420.9489,E,1,,,14.3,M,,M,,*5B
$GPRMC,003402.0,A,2434.0804,N,12420.9489,E,,,290423,,*0C
$GPGGA,003432.0,2434.0478,N,12420.9294,E,1,,,13.1,M,,M,,*50
$GPRMC,003432.0,A,2434.0478,N,12420.9294,E,,,290423,,*02
$GPGGA,003502.0,2434.0177,N,12420.9053,E,1,,,12.3,M,,M,,*52
$GPRMC,003502.0,A,2434.0177,N,12420.9053,E,,,290423,,*03
$GPGGA,003532.0,2433.9862,N,12420.8845,E,1,,,13.1,M,,M,,*5F
$GPRMC,003532.0,A,2433.9862,N,12420.8845,E,,,290423,,*0D
$GPGGA,003602.0,2433.9725,N,12420.8650,E,1,,,11.0,M,,M,,*5A
$GPRMC,003602.0,A,2433.9725,N,12420.8650,E,,,290423,,*0B
$GPGGA,003632.0,2433.9778,N,12420.8567,E,1,,,13.1,M,,M,,*55
$GPRMC,003632.0,A,2433.9778,N,12420.8567,E,,,290423,,*07
$GPGGA,003702.0,2433.9863,N,12420.8537,E,1,,,14.7,M,,M,,*56
$GPRMC,003702.0,A,2433.9863,N,12420.8537,E,,,290423,,*05
$GPGGA,003732.0,2433.9952,N,12420.8529,E,1,,,13.3,M,,M,,*5A
$GPRMC,003732.0,A,2433.9952,N,12420.8529,E,,,290423,,*0A
$GPGGA,003802.0,2434.0041,N,12420.8517,E,1,,,16.6,M,,M,,*5E
$GPRMC,003802.0,A,2434.0041,N,12420.8517,E,,,290423,,*0E
$GPGGA,003832.0,2434.0141,N,12420.8513,E,1,,,16.1,M,,M,,*5F
$GPRMC,003832.0,A,2434.0141,N,12420.8513,E,,,290423,,*08
$GPGGA,003902.0,2434.0256,N,12420.8639,E,1,,,14.7,M,,M,,*57
$GPRMC,003902.0,A,2434.0256,N,12420.8639,E,,,290423,,*04
$GPGGA,003932.0,2434.0357,N,12420.8663,E,1,,,14.0,M,,M,,*5C
$GPRMC,003932.0,A,2434.0357,N,12420.8663,E,,,290423,,*08
$GPGGA,004002.0,2434.0455,N,12420.8662,E,1,,,14.0,M,,M,,*55
$GPRMC,004002.0,A,2434.0455,N,12420.8662,E,,,290423,,*01
$GPGGA,004032.0,2434.0544,N,12420.8654,E,1,,,13.1,M,,M,,*54
$GPRMC,004032.0,A,2434.0544,N,12420.8654,E,,,290423,,*06
$GPGGA,004102.0,2434.0212,N,12420.8612,E,1,,,14.1,M,,M,,*57
$GPRMC,004102.0,A,2434.0212,N,12420.8612,E,,,290423,,*02
$GPGGA,004132.0,2433.9940,N,12420.8925,E,1,,,12.5,M,,M,,*5F
$GPRMC,004132.0,A,2433.9940,N,12420.8925,E,,,290423,,*08
$GPGGA,004202.0,2434.0044,N,12420.9026,E,1,,,16.9,M,,M,,*5F
$GPRMC,004202.0,A,2434.0044,N,12420.9026,E,,,290423,,*00
$GPGGA,004232.0,2434.0166,N,12420.9129,E,1,,,16.4,M,,M,,*5E
$GPRMC,004232.0,A,2434.0166,N,12420.9129,E,,,290423,,*0C
$GPGGA,004302.0,2434.0274,N,12420.9198,E,1,,,16.9,M,,M,,*5B
$GPRMC,004302.0,A,2434.0274,N,12420.9198,E,,,290423,,*04
$GPGGA,004332.0,2434.0392,N,12420.9248,E,1,,,16.7,M,,M,,*51
$GPRMC,004332.0,A,2434.0392,N,12420.9248,E,,,290423,,*00
$GPGGA,004402.0,2434.0511,N,12420.9306,E,1,,,16.3,M,,M,,*57
$GPRMC,004402.0,A,2434.0511,N,12420.9306,E,,,290423,,*02
$GPGGA,004432.0,2434.0401,N,12420.9703,E,1,,,15.3,M,,M,,*56
$GPRMC,004432.0,A,2434.0401,N,12420.9703,E,,,290423,,*00
$GPGGA,004502.0,2434.0310,N,12420.9882,E,1,,,14.6,M,,M,,*51
$GPRMC,004502.0,A,2434.0310,N,12420.9882,E,,,290423,,*03
$GPGGA,004532.0,2434.0342,N,12420.9939,E,1,,,13.9,M,,M,,*5C
$GPRMC,004532.0,A,2434.0342,N,12420.9939,E,,,290423,,*06
$GPGGA,004602.0,2434.0292,N,12421.0005,E,1,,,14.5,M,,M,,*55
$GPRMC,004602.0,A,2434.0292,N,12421.0005,E,,,290423,,*04
$GPGGA,004632.0,2434.0214,N,12420.9996,E,1,,,15.5,M,,M,,*52
$GPRMC,004632.0,A,2434.0214,N,12420.9996,E,,,290423,,*02
$GPGGA,004702.0,2434.0243,N,12420.9978,E,1,,,11.6,M,,M,,*55
$GPRMC,004702.0,A,2434.0243,N,12420.9978,E,,,290423,,*02
$GPGGA,004732.0,2434.0299,N,12420.9953,E,1,,,16.5,M,,M,,*5C
$GPRMC,004732.0,A,2434.0299,N,12420.9953,E,,,290423,,*0F
$GPGGA,004802.0,2434.0379,N,12420.9935,E,1,,,14.9,M,,M,,*51
$GPRMC,004802.0,A,2434.0379,N,12420.9935,E,,,290423,,*0C
$GPGGA,004832.0,2434.0472,N,12420.9926,E,1,,,14.4,M,,M,,*51
$GPRMC,004832.0,A,2434.0472,N,12420.9926,E,,,290423,,*01
$GPGGA,004902.0,2434.0567,N,12420.9925,E,1,,,13.6,M,,M,,*50
$GPRMC,004902.0,A,2434.0567,N,12420.9925,E,,,290423,,*05
$GPGGA,004932.0,2434.0670,N,12420.9931,E,1,,,14.5,M,,M,,*57
$GPRMC,004932.0,A,2434.0670,N,12420.9931,E,,,290423,,*06
$GPGGA,005002.0,2434.0775,N,12420.9930,E,1,,,15.3,M,,M,,*5E
$GPRMC,005002.0,A,2434.0775,N,12420.9930,E,,,290423,,*08
$GPGGA,005032.0,2434.0879,N,12420.9930,E,1,,,15.8,M,,M,,*55
$GPRMC,005032.0,A,2434.0879,N,12420.9930,E,,,290423,,*08
$GPGGA,005102.0,2434.0979,N,12420.9930,E,1,,,17.6,M,,M,,*5A
$GPRMC,005102.0,A,2434.0979,N,12420.9930,E,,,290423,,*0B
$GPGGA,005132.0,2434.1071,N,12420.9912,E,1,,,16.7,M,,M,,*59
$GPRMC,005132.0,A,2434.1071,N,12420.9912,E,,,290423,,*08
$GPGGA,005202.0,2434.0608,N,12420.9988,E,1,,,14.7,M,,M,,*51
$GPRMC,005202.0,A,2434.0608,N,12420.9988,E,,,290423,,*02
$GPGGA,005232.0,2434.0189,N,12421.0073,E,1,,,11.6,M,,M,,*5D
$GPRMC,005232.0,A,2434.0189,N,12421.0073,E,,,290423,,*0A
$GPGGA,005302.0,2434.0166,N,12421.0024,E,1,,,13.2,M,,M,,*5A
$GPRMC,005302.0,A,2434.0166,N,12421.0024,E,,,290423,,*0B
$GPGGA,005332.0,2434.0223,N,12420.9979,E,1,,,13.9,M,,M,,*59
$GPRMC,005332.0,A,2434.0223,N,12420.9979,E,,,290423,,*03
$GPGGA,005402.0,2434.0307,N,12420.9956,E,1,,,14.3,M,,M,,*5A
$GPRMC,005402.0,A,2434.0307,N,12420.9956,E,,,290423,,*0D
$GPGGA,005432.0,2434.0395,N,12420.9944,E,1,,,13.5,M,,M,,*50
$GPRMC,005432.0,A,2434.0395,N,12420.9944,E,,,290423,,*06
$GPGGA,005502.0,2434.0487,N,12420.9941,E,1,,,15.0,M,,M,,*50
$GPRMC,005502.0,A,2434.0487,N,12420.9941,E,,,290423,,*05
$GPGGA,005532.0,2434.0587,N,12420.9937,E,1,,,16.4,M,,M,,*54
$GPRMC,005532.0,A,2434.0587,N,12420.9937,E,,,290423,,*06
$GPGGA,005602.0,2434.0691,N,12420.9934,E,1,,,15.2,M,,M,,*56
$GPRMC,005602.0,A,2434.0691,N,12420.9934,E,,,290423,,*01
$GPGGA,005632.0,2434.0791,N,12420.9935,E,1,,,14.2,M,,M,,*54
$GPRMC,005632.0,A,2434.0791,N,12420.9935,E,,,290423,,*02
$GPGGA,005702.0,2434.0891,N,12420.9933,E,1,,,13.3,M,,M,,*59
$GPRMC,005702.0,A,2434.0891,N,12420.9933,E,,,290423,,*09
$GPGGA,005732.0,2434.0994,N,12420.9926,E,1,,,13.8,M,,M,,*51
$GPRMC,005732.0,A,2434.0994,N,12420.9926,E,,,290423,,*0A
$GPGGA,005802.0,2434.1091,N,12420.9920,E,1,,,15.3,M,,M,,*5B
$GPRMC,005802.0,A,2434.1091,N,12420.9920,E,,,290423,,*0D
$GPGGA,005832.0,2434.1123,N,12420.9861,E,1,,,15.2,M,,M,,*55
$GPRMC,005832.0,A,2434.1123,N,12420.9861,E,,,290423,,*02
$GPGGA,005902.0,2434.0804,N,12420.9983,E,1,,,13.0,M,,M,,*53
$GPRMC,005902.0,A,2434.0804,N,12420.9983,E,,,290423,,*00
$GPGGA,005932.0,2434.0442,N,12421.0142,E,1,,,10.7,M,,M,,*57
$GPRMC,005932.0,A,2434.0442,N,12421.0142,E,,,290423,,*00
$GPGGA,010002.0,2434.0301,N,12421.0118,E,1,,,11.2,M,,M,,*52
$GPRMC,010002.0,A,2434.0301,N,12421.0118,E,,,290423,,*01
$GPGGA,010032.0,2434.0315,N,12421.0079,E,1,,,15.2,M,,M,,*56
$GPRMC,010032.0,A,2434.0315,N,12421.0079,E,,,290423,,*01
$GPGGA,010102.0,2434.0386,N,12421.0046,E,1,,,16.0,M,,M,,*53
$GPRMC,010102.0,A,2434.0386,N,12421.0046,E,,,290423,,*05
$GPGGA,010132.0,2434.0478,N,12421.0029,E,1,,,15.0,M,,M,,*5C
$GPRMC,010132.0,A,2434.0478,N,12421.0029,E,,,290423,,*09
$GPGGA,010202.0,2434.0565,N,12421.0021,E,1,,,14.2,M,,M,,*5A
$GPRMC,010202.0,A,2434.0565,N,12421.0021,E,,,290423,,*0C
$GPGGA,010232.0,2434.0660,N,12421.0013,E,1,,,13.5,M,,M,,*5E
$GPRMC,010232.0,A,2434.0660,N,12421.0013,E,,,290423,,*08
$GPGGA,010302.0,2434.0752,N,12421.0004,E,1,,,12.9,M,,M,,*57
$GPRMC,010302.0,A,2434.0752,N,12421.0004,E,,,290423,,*0C
$GPGGA,010332.0,2434.0840,N,12421.0004,E,1,,,13.7,M,,M,,*57
$GPRMC,010332.0,A,2434.0840,N,12421.0004,E,,,290423,,*03
$GPGGA,010402.0,2434.0861,N,12420.9948,E,1,,,15.3,M,,M,,*5B
$GPRMC,010402.0,A,2434.0861,N,12420.9948,E,,,290423,,*0D
$GPGGA,010432.0,2434.0447,N,12421.0186,E,1,,,14.2,M,,M,,*52
$GPRMC,010432.0,A,2434.0447,N,12421.0186,E,,,290423,,*04
$GPGGA,010502.0,2434.0345,N,12421.0173,E,1,,,15.3,M,,M,,*5F
$GPRMC,010502.0,A,2434.0345,N,12421.0173,E,,,290423,,*09
$GPGGA,010532.0,2434.0432,N,12421.0188,E,1,,,16.7,M,,M,,*58
$GPRMC,010532.0,A,2434.0432,N,12421.0188,E,,,290423,,*09
$GPGGA,010602.0,2434.0536,N,12421.0213,E,1,,,16.3,M,,M,,*58
$GPRMC,010602.0,A,2434.0536,N,12421.0213,E,,,290423,,*0D
$GPGGA,010632.0,2434.0642,N,12421.0231,E,1,,,14.3,M,,M,,*59
$GPRMC,010632.0,A,2434.0642,N,12421.0231,E,,,290423,,*0E
$GPGGA,010702.0,2434.0740,N,12421.0240,E,1,,,14.7,M,,M,,*5A
$GPRMC,010702.0,A,2434.0740,N,12421.0240,E,,,290423,,*09
$GPGGA,010732.0,2434.0838,N,12421.0253,E,1,,,13.0,M,,M,,*5B
$GPRMC,010732.0,A,2434.0838,N,12421.0253,E,,,290423,,*08
$GPGGA,010802.0,2434.0938,N,12421.0263,E,1,,,13.1,M,,M,,*54
$GPRMC,010802.0,A,2434.0938,N,12421.0263,E,,,290423,,*06
$GPGGA,010832.0,2434.1035,N,12421.0264,E,1,,,13.1,M,,M,,*55
$GPRMC,010832.0,A,2434.1035,N,12421.0264,E,,,290423,,*07
$GPGGA,010902.0,2434.1137,N,12421.0268,E,1,,,12.9,M,,M,,*51
$GPRMC,010902.0,A,2434.1137,N,12421.0268,E,,,290423,,*0A
$GPGGA,010932.0,2434.1244,N,12421.0266,E,1,,,12.2,M,,M,,*50
$GPRMC,010932.0,A,2434.1244,N,12421.0266,E,,,290423,,*00
$GPGGA,011002.0,2434.1349,N,12421.0273,E,1,,,11.8,M,,M,,*5A
$GPRMC,011002.0,A,2434.1349,N,12421.0273,E,,,290423,,*03
$GPGGA,011032.0,2434.1453,N,12421.0273,E,1,,,11.7,M,,M,,*5A
$GPRMC,011032.0,A,2434.1453,N,12421.0273,E,,,290423,,*0C
$GPGGA,011102.0,2434.1552,N,12421.0268,E,1,,,11.7,M,,M,,*52
$GPRMC,011102.0,A,2434.1552,N,12421.0268,E,,,290423,,*04
$GPGGA,011132.0,2434.1468,N,12421.0237,E,1,,,9.3,M,,M,,*6E
$GPRMC,011132.0,A,2434.1468,N,12421.0237,E,,,290423,,*05
$GPGGA,011202.0,2434.1026,N,12421.0451,E,1,,,6.9,M,,M,,*63
$GPRMC,011202.0,A,2434.1026,N,12421.0451,E,,,290423,,*0D
$GPGGA,011232.0,2434.0941,N,12421.0434,E,1,,,8.1,M,,M,,*6C
$GPRMC,011232.0,A,2434.0941,N,12421.0434,E,,,290423,,*04
$GPGGA,011302.0,2434.0957,N,12421.0413,E,1,,,12.1,M,,M,,*57
$GPRMC,011302.0,A,2434.0957,N,12421.0413,E,,,290423,,*04
$GPGGA,011332.0,2434.1046,N,12421.0388,E,1,,,12.3,M,,M,,*5B
$GPRMC,011332.0,A,2434.1046,N,12421.0388,E,,,290423,,*0A
$GPGGA,011402.0,2434.1131,N,12421.0372,E,1,,,11.4,M,,M,,*5F
$GPRMC,011402.0,A,2434.1131,N,12421.0372,E,,,290423,,*0A
$GPGGA,011432.0,2434.1221,N,12421.0358,E,1,,,11.8,M,,M,,*5A
$GPRMC,011432.0,A,2434.1221,N,12421.0358,E,,,290423,,*03
$GPGGA,011502.0,2434.1314,N,12421.0350,E,1,,,10.0,M,,M,,*5E
$GPRMC,011502.0,A,2434.1314,N,12421.0350,E,,,290423,,*0E
$GPGGA,011532.0,2434.1267,N,12421.0228,E,1,,,11.2,M,,M,,*55
$GPRMC,011532.0,A,2434.1267,N,12421.0228,E,,,290423,,*06
$GPGGA,011602.0,2434.1317,N,12420.9662,E,1,,,12.0,M,,M,,*50
$GPRMC,011602.0,A,2434.1317,N,12420.9662,E,,,290423,,*02
$GPGGA,011632.0,2434.1384,N,12420.9635,E,1,,,12.1,M,,M,,*5A
$GPRMC,011632.0,A,2434.1384,N,12420.9635,E,,,290423,,*09
$GPGGA,011702.0,2434.1472,N,12420.9628,E,1,,,11.6,M,,M,,*5E
$GPRMC,011702.0,A,2434.1472,N,12420.9628,E,,,290423,,*09
$GPGGA,011732.0,2434.1344,N,12420.9693,E,1,,,12.2,M,,M,,*58
$GPRMC,011732.0,A,2434.1344,N,12420.9693,E,,,290423,,*08
$GPGGA,011802.0,2434.1821,N,12421.0189,E,1,,,12.2,M,,M,,*58
$GPRMC,011802.0,A,2434.1821,N,12421.0189,E,,,290423,,*08
$GPGGA,011832.0,2434.1900,N,12421.0141,E,1,,,13.3,M,,M,,*5D
$GPRMC,011832.0,A,2434.1900,N,12421.0141,E,,,290423,,*0D
$GPGGA,011902.0,2434.1972,N,12421.0126,E,1,,,13.4,M,,M,,*5C
$GPRMC,011902.0,A,2434.1972,N,12421.0126,E,,,290423,,*0B
$GPGGA,011932.0,2434.2061,N,12421.0137,E,1,,,13.2,M,,M,,*51
$GPRMC,011932.0,A,2434.2061,N,12421.0137,E,,,290423,,*00
$GPGGA,012002.0,2434.2158,N,12421.0322,E,1,,,14.7,M,,M,,*57
$GPRMC,012002.0,A,2434.2158,N,12421.0322,E,,,290423,,*04
$GPGGA,012032.0,2434.2247,N,12421.0454,E,1,,,14.5,M,,M,,*5D
$GPRMC,012032.0,A,2434.2247,N,12421.0454,E,,,290423,,*0C
$GPGGA,012102.0,2434.2332,N,12421.0602,E,1,,,13.3,M,,M,,*5C
$GPRMC,012102.0,A,2434.2332,N,12421.0602,E,,,290423,,*0C
$GPGGA,012132.0,2434.1946,N,12421.0537,E,1,,,13.5,M,,M,,*56
$GPRMC,012132.0,A,2434.1946,N,12421.0537,E,,,290423,,*00
$GPGGA,012202.0,2434.1534,N,12421.0181,E,1,,,12.5,M,,M,,*57
$GPRMC,012202.0,A,2434.1534,N,12421.0181,E,,,290423,,*00
$GPGGA,012232.0,2434.1582,N,12421.0164,E,1,,,13.5,M,,M,,*53
$GPRMC,012232.0,A,2434.1582,N,12421.0164,E,,,290423,,*05
$GPGGA,012332.4,2434.1715,N,12421.0153,E,1,,,14.6,M,,M,,*5A
$GPRMC,012332.4,A,2434.1715,N,12421.0153,E,,,290423,,*08
$GPGGA,012402.0,2434.1801,N,12421.0134,E,1,,,8.5,M,,M,,*6F
$GPRMC,012402.0,A,2434.1801,N,12421.0134,E,,,290423,,*03
$GPGGA,012432.0,2434.1887,N,12421.0064,E,1,,,13.3,M,,M,,*5A
$GPRMC,012432.0,A,2434.1887,N,12421.0064,E,,,290423,,*0A
$GPGGA,012502.0,2434.2235,N,12421.0116,E,1,,,9.8,M,,M,,*6C
$GPRMC,012502.0,A,2434.2235,N,12421.0116,E,,,290423,,*0C
$GPGGA,012532.0,2434.2648,N,12421.0373,E,1,,,13.6,M,,M,,*55
$GPRMC,012532.0,A,2434.2648,N,12421.0373,E,,,290423,,*00
$GPGGA,012602.0,2434.3090,N,12421.0603,E,1,,,15.8,M,,M,,*5D
$GPRMC,012602.0,A,2434.3090,N,12421.0603,E,,,290423,,*00
$GPGGA,012632.0,2434.3544,N,12421.0827,E,1,,,16.3,M,,M,,*52
$GPRMC,012632.0,A,2434.3544,N,12421.0827,E,,,290423,,*07
$GPGGA,012702.0,2434.4004,N,12421.1035,E,1,,,19.1,M,,M,,*51
$GPRMC,012702.0,A,2434.4004,N,12421.1035,E,,,290423,,*09
$GPGGA,012732.0,2434.4445,N,12421.1278,E,1,,,16.3,M,,M,,*55
$GPRMC,012732.0,A,2434.4445,N,12421.1278,E,,,290423,,*00
$GPGGA,012802.0,2434.4884,N,12421.1545,E,1,,,12.9,M,,M,,*5F
$GPRMC,012802.0,A,2434.4884,N,12421.1545,E,,,290423,,*04
$GPGGA,012832.0,2434.5340,N,12421.1798,E,1,,,11.4,M,,M,,*52
$GPRMC,012832.0,A,2434.5340,N,12421.1798,E,,,290423,,*07
$GPGGA,012902.0,2434.5790,N,12421.2055,E,1,,,11.7,M,,M,,*5F
$GPRMC,012902.0,A,2434.5790,N,12421.2055,E,,,290423,,*09
$GPGGA,012932.0,2434.6251,N,12421.2300,E,1,,,11.8,M,,M,,*5B
$GPRMC,012932.0,A,2434.6251,N,12421.2300,E,,,290423,,*02
$GPGGA,013002.0,2434.6714,N,12421.2541,E,1,,,12.3,M,,M,,*5F
$GPRMC,013002.0,A,2434.6714,N,12421.2541,E,,,290423,,*0E
$GPGGA,013032.0,2434.7191,N,12421.2786,E,1,,,11.9,M,,M,,*56
$GPRMC,013032.0,A,2434.7191,N,12421.2786,E,,,290423,,*0E
$GPGGA,013102.0,2434.7950,N,12421.3105,E,1,,,9.8,M,,M,,*65
$GPRMC,013102.0,A,2434.7950,N,12421.3105,E,,,290423,,*05
$GPGGA,013132.0,2434.9434,N,12421.3455,E,1,,,13.4,M,,M,,*50
$GPRMC,013132.0,A,2434.9434,N,12421.3455,E,,,290423,,*07
$GPGGA,013202.0,2435.0912,N,12421.3730,E,1,,,14.9,M,,M,,*5B
$GPRMC,013202.0,A,2435.0912,N,12421.3730,E,,,290423,,*06
$GPGGA,013232.0,2435.2383,N,12421.4039,E,1,,,16.4,M,,M,,*5E
$GPRMC,013232.0,A,2435.2383,N,12421.4039,E,,,290423,,*0C
$GPGGA,013302.0,2435.3869,N,12421.4216,E,1,,,16.2,M,,M,,*5B
$GPRMC,013302.0,A,2435.3869,N,12421.4216,E,,,290423,,*0F
$GPGGA,013332.0,2435.5375,N,12421.3926,E,1,,,15.4,M,,M,,*52
$GPRMC,013332.0,A,2435.5375,N,12421.3926,E,,,290423,,*03
$GPGGA,013402.0,2435.6841,N,12421.3761,E,1,,,13.1,M,,M,,*57
$GPRMC,013402.0,A,2435.6841,N,12421.3761,E,,,290423,,*05
$GPGGA,013432.0,2435.8280,N,12421.3485,E,1,,,14.6,M,,M,,*54
$GPRMC,013432.0,A,2435.8280,N,12421.3485,E,,,290423,,*06
$GPGGA,013502.0,2435.9727,N,12421.3155,E,1,,,14.7,M,,M,,*56
$GPRMC,013502.0,A,2435.9727,N,12421.3155,E,,,290423,,*05
$GPGGA,013532.0,2436.1043,N,12421.2848,E,1,,,14.8,M,,M,,*50
$GPRMC,013532.0,A,2436.1043,N,12421.2848,E,,,290423,,*0C
$GPGGA,013602.0,2436.1651,N,12421.2535,E,1,,,13.9,M,,M,,*54
$GPRMC,013602.0,A,2436.1651,N,12421.2535,E,,,290423,,*0E
$GPGGA,013732.3,2436.2643,N,12421.2469,E,1,,,1.0,M,,M,,*67
$GPRMC,013732.3,A,2436.2643,N,12421.2469,E,,,290423,,*07
$GPGGA,013802.0,2436.2365,N,12421.2644,E,1,,,-3.8,M,,M,,*43
$GPRMC,013802.0,A,2436.2365,N,12421.2644,E,,,290423,,*04
$GPGGA,013832.0,2436.2181,N,12421.2592,E,1,,,19.2,M,,M,,*5C
$GPRMC,013832.0,A,2436.2181,N,12421.2592,E,,,290423,,*07
$GPGGA,013902.0,2436.2075,N,12421.2483,E,1,,,14.6,M,,M,,*5C
$GPRMC,013902.0,A,2436.2075,N,12421.2483,E,,,290423,,*0E
$GPGGA,013932.0,2436.1941,N,12421.2473,E,1,,,17.5,M,,M,,*5D
$GPRMC,013932.0,A,2436.1941,N,12421.2473,E,,,290423,,*0F
$GPGGA,014002.0,2436.1925,N,12421.2515,E,1,,,16.7,M,,M,,*50
$GPRMC,014002.0,A,2436.1925,N,12421.2515,E,,,290423,,*01
$GPGGA,014032.0,2436.1967,N,12421.2641,E,1,,,18.3,M,,M,,*5D
$GPRMC,014032.0,A,2436.1967,N,12421.2641,E,,,290423,,*06
$GPGGA,014102.0,2436.1941,N,12421.2912,E,1,,,17.1,M,,M,,*5F
$GPRMC,014102.0,A,2436.1941,N,12421.2912,E,,,290423,,*09
$GPGGA,014132.0,2436.1996,N,12421.3005,E,1,,,15.1,M,,M,,*5A
$GPRMC,014132.0,A,2436.1996,N,12421.3005,E,,,290423,,*0E
$GPGGA,014202.0,2436.2050,N,12421.3027,E,1,,,12.2,M,,M,,*5E
$GPRMC,014202.0,A,2436.2050,N,12421.3027,E,,,290423,,*0E
$GPGGA,014232.0,2436.2103,N,12421.3023,E,1,,,12.4,M,,M,,*58
$GPRMC,014232.0,A,2436.2103,N,12421.3023,E,,,290423,,*0E
$GPGGA,014302.0,2436.2153,N,12421.3008,E,1,,,9.4,M,,M,,*6C
$GPRMC,014302.0,A,2436.2153,N,12421.3008,E,,,290423,,*00
$GPGGA,014332.0,2436.2206,N,12421.2992,E,1,,,7.4,M,,M,,*69
$GPRMC,014332.0,A,2436.2206,N,12421.2992,E,,,290423,,*0B
$GPGGA,014402.0,2436.2252,N,12421.2974,E,1,,,6.6,M,,M,,*67
$GPRMC,014402.0,A,2436.2252,N,12421.2974,E,,,290423,,*06
$GPGGA,014432.0,2436.2301,N,12421.2958,E,1,,,4.9,M,,M,,*60
$GPRMC,014432.0,A,2436.2301,N,12421.2958,E,,,290423,,*0C
$GPGGA,014502.0,2436.2345,N,12421.2944,E,1,,,5.7,M,,M,,*60
$GPRMC,014502.0,A,2436.2345,N,12421.2944,E,,,290423,,*03
$GPGGA,014532.0,2436.2388,N,12421.2933,E,1,,,6.6,M,,M,,*60
$GPRMC,014532.0,A,2436.2388,N,12421.2933,E,,,290423,,*01
$GPGGA,014602.0,2436.2430,N,12421.3075,E,1,,,7.4,M,,M,,*6D
$GPRMC,014602.0,A,2436.2430,N,12421.3075,E,,,290423,,*0F
$GPGGA,014632.0,2436.2119,N,12421.3315,E,1,,,12.7,M,,M,,*52
$GPRMC,014632.0,A,2436.2119,N,12421.3315,E,,,290423,,*07
$GPGGA,014702.0,2436.1795,N,12421.3608,E,1,,,14.8,M,,M,,*51
$GPRMC,014702.0,A,2436.1795,N,12421.3608,E,,,290423,,*0D
$GPGGA,014732.0,2436.1519,N,12421.3940,E,1,,,14.9,M,,M,,*56
$GPRMC,014732.0,A,2436.1519,N,12421.3940,E,,,290423,,*0B
$GPGGA,014802.0,2436.1380,N,12421.4136,E,1,,,15.5,M,,M,,*5F
$GPRMC,014802.0,A,2436.1380,N,12421.4136,E,,,290423,,*0F
$GPGGA,014832.0,2436.1411,N,12421.4216,E,1,,,14.9,M,,M,,*5F
$GPRMC,014832.0,A,2436.1411,N,12421.4216,E,,,290423,,*02
$GPGGA,014902.0,2436.1504,N,12421.4270,E,1,,,13.4,M,,M,,*52
$GPRMC,014902.0,A,2436.1504,N,12421.4270,E,,,290423,,*05
$GPGGA,014932.0,2436.1608,N,12421.4305,E,1,,,15.9,M,,M,,*56
$GPRMC,014932.0,A,2436.1608,N,12421.4305,E,,,290423,,*0A
$GPGGA,015002.0,2436.1719,N,12421.4321,E,1,,,16.7,M,,M,,*57
$GPRMC,015002.0,A,2436.1719,N,12421.4321,E,,,290423,,*06
$GPGGA,015032.0,2436.1826,N,12421.4306,E,1,,,15.2,M,,M,,*54
$GPRMC,015032.0,A,2436.1826,N,12421.4306,E,,,290423,,*03
$GPGGA,015102.0,2436.1934,N,12421.4282,E,1,,,10.5,M,,M,,*5B
$GPRMC,015102.0,A,2436.1934,N,12421.4282,E,,,290423,,*0E
$GPGGA,015132.0,2436.2045,N,12421.4270,E,1,,,9.8,M,,M,,*6C
$GPRMC,015132.0,A,2436.2045,N,12421.4270,E,,,290423,,*0C
$GPGGA,015202.0,2436.2153,N,12421.4260,E,1,,,10.5,M,,M,,*5E
$GPRMC,015202.0,A,2436.2153,N,12421.4260,E,,,290423,,*0B
$GPGGA,015232.0,2436.2263,N,12421.4244,E,1,,,10.0,M,,M,,*5E
$GPRMC,015232.0,A,2436.2263,N,12421.4244,E,,,290423,,*0E
$GPGGA,015302.0,2436.2373,N,12421.4225,E,1,,,8.9,M,,M,,*6B
$GPRMC,015302.0,A,2436.2373,N,12421.4225,E,,,290423,,*0B
$GPGGA,015332.0,2436.2475,N,12421.4214,E,1,,,10.4,M,,M,,*5F
$GPRMC,015332.0,A,2436.2475,N,12421.4214,E,,,290423,,*0B
$GPGGA,015402.0,2436.2571,N,12421.4211,E,1,,,11.4,M,,M,,*5A
$GPRMC,015402.0,A,2436.2571,N,12421.4211,E,,,290423,,*0F
$GPGGA,015432.0,2436.2666,N,12421.4200,E,1,,,11.8,M,,M,,*50
$GPRMC,015432.0,A,2436.2666,N,12421.4200,E,,,290423,,*09
$GPGGA,015502.0,2436.2770,N,12421.4194,E,1,,,11.9,M,,M,,*5B
$GPRMC,015502.0,A,2436.2770,N,12421.4194,E,,,290423,,*03
$GPGGA,015532.0,2436.2865,N,12421.4177,E,1,,,12.3,M,,M,,*57
$GPRMC,015532.0,A,2436.2865,N,12421.4177,E,,,290423,,*06
$GPGGA,015602.0,2436.2964,N,12421.4158,E,1,,,11.1,M,,M,,*5B
$GPRMC,015602.0,A,2436.2964,N,12421.4158,E,,,290423,,*0B
$GPGGA,015632.0,2436.3060,N,12421.4135,E,1,,,11.5,M,,M,,*5B
$GPRMC,015632.0,A,2436.3060,N,12421.4135,E,,,290423,,*0F
$GPGGA,015702.0,2436.3152,N,12421.4116,E,1,,,12.9,M,,M,,*57
$GPRMC,015702.0,A,2436.3152,N,12421.4116,E,,,290423,,*0C
$GPGGA,015732.0,2436.3240,N,12421.4097,E,1,,,12.9,M,,M,,*5C
$GPRMC,015732.0,A,2436.3240,N,12421.4097,E,,,290423,,*07
$GPGGA,015802.0,2436.3334,N,12421.4077,E,1,,,11.5,M,,M,,*53
$GPRMC,015802.0,A,2436.3334,N,12421.4077,E,,,290423,,*07
$GPGGA,015832.0,2436.3431,N,12421.4052,E,1,,,11.3,M,,M,,*53
$GPRMC,015832.0,A,2436.3431,N,12421.4052,E,,,290423,,*01
$GPGGA,015902.0,2436.3520,N,12421.4028,E,1,,,11.0,M,,M,,*5E
$GPRMC,015902.0,A,2436.3520,N,12421.4028,E,,,290423,,*0F
$GPGGA,015932.0,2436.3602,N,12421.4018,E,1,,,10.5,M,,M,,*59
$GPRMC,015932.0,A,2436.3602,N,12421.4018,E,,,290423,,*0C
$GPGGA,020002.0,2436.3679,N,12421.4002,E,1,,,10.0,M,,M,,*57
$GPRMC,020002.0,A,2436.3679,N,12421.4002,E,,,290423,,*07
$GPGGA,020032.0,2436.3757,N,12421.3976,E,1,,,9.5,M,,M,,*69
$GPRMC,020032.0,A,2436.3757,N,12421.3976,E,,,290423,,*04
$GPGGA,020102.0,2436.3831,N,12421.3956,E,1,,,7.5,M,,M,,*68
$GPRMC,020102.0,A,2436.3831,N,12421.3956,E,,,290423,,*0B
$GPGGA,020132.0,2436.3901,N,12421.3941,E,1,,,7.9,M,,M,,*63
$GPRMC,020132.0,A,2436.3901,N,12421.3941,E,,,290423,,*0C
$GPGGA,020202.0,2436.3974,N,12421.3924,E,1,,,8.6,M,,M,,*62
$GPRMC,020202.0,A,2436.3974,N,12421.3924,E,,,290423,,*0D
$GPGGA,020232.0,2436.4044,N,12421.3910,E,1,,,9.1,M,,M,,*6D
$GPRMC,020232.0,A,2436.4044,N,12421.3910,E,,,290423,,*04
$GPGGA,020302.0,2436.4114,N,12421.3886,E,1,,,8.7,M,,M,,*62
$GPRMC,020302.0,A,2436.4114,N,12421.3886,E,,,290423,,*0C
$GPGGA,020332.0,2436.4180,N,12421.3859,E,1,,,9.4,M,,M,,*6C
$GPRMC,020332.0,A,2436.4180,N,12421.3859,E,,,290423,,*00
$GPGGA,020402.0,2436.4238,N,12421.3830,E,1,,,8.9,M,,M,,*6B
$GPRMC,020402.0,A,2436.4238,N,12421.3830,E,,,290423,,*0B
$GPGGA,020432.0,2436.4293,N,12421.3812,E,1,,,7.9,M,,M,,*66
$GPRMC,020432.0,A,2436.4293,N,12421.3812,E,,,290423,,*09
$GPGGA,020502.0,2436.4363,N,12421.3814,E,1,,,7.3,M,,M,,*66
$GPRMC,020502.0,A,2436.4363,N,12421.3814,E,,,290423,,*03
$GPGGA,020532.0,2436.4422,N,12421.3799,E,1,,,7.9,M,,M,,*67
$GPRMC,020532.0,A,2436.4422,N,12421.3799,E,,,290423,,*08
$GPGGA,020602.0,2436.4433,N,12421.3923,E,1,,,7.7,M,,M,,*66
$GPRMC,020602.0,A,2436.4433,N,12421.3923,E,,,290423,,*07
$GPGGA,020632.0,2436.3661,N,12421.4234,E,1,,,6.6,M,,M,,*6D
$GPRMC,020632.0,A,2436.3661,N,12421.4234,E,,,290423,,*0C
$GPGGA,020702.0,2436.2836,N,12421.4406,E,1,,,4.3,M,,M,,*62
$GPRMC,020702.0,A,2436.2836,N,12421.4406,E,,,290423,,*04
$GPGGA,020732.0,2436.2011,N,12421.4537,E,1,,,5.8,M,,M,,*65
$GPRMC,020732.0,A,2436.2011,N,12421.4537,E,,,290423,,*09
$GPGGA,020802.0,2436.1209,N,12421.4764,E,1,,,7.3,M,,M,,*6C
$GPRMC,020802.0,A,2436.1209,N,12421.4764,E,,,290423,,*09
$GPGGA,020832.0,2436.0467,N,12421.5134,E,1,,,7.0,M,,M,,*61
$GPRMC,020832.0,A,2436.0467,N,12421.5134,E,,,290423,,*07
$GPGGA,020902.0,2436.0253,N,12421.5267,E,1,,,6.6,M,,M,,*60
$GPRMC,020902.0,A,2436.0253,N,12421.5267,E,,,290423,,*01
$GPGGA,020932.0,2436.0243,N,12421.5316,E,1,,,9.1,M,,M,,*6D
$GPRMC,020932.0,A,2436.0243,N,12421.5316,E,,,290423,,*04
$GPGGA,021002.0,2436.0324,N,12421.5371,E,1,,,11.6,M,,M,,*59
$GPRMC,021002.0,A,2436.0324,N,12421.5371,E,,,290423,,*0E
$GPGGA,021032.0,2436.0419,N,12421.5405,E,1,,,11.8,M,,M,,*59
$GPRMC,021032.0,A,2436.0419,N,12421.5405,E,,,290423,,*00
$GPGGA,021102.0,2436.0530,N,12421.5420,E,1,,,12.3,M,,M,,*5E
$GPRMC,021102.0,A,2436.0530,N,12421.5420,E,,,290423,,*0F
$GPGGA,021132.0,2436.0639,N,12421.5415,E,1,,,12.0,M,,M,,*52
$GPRMC,021132.0,A,2436.0639,N,12421.5415,E,,,290423,,*00
$GPGGA,021202.0,2436.0749,N,12421.5410,E,1,,,11.8,M,,M,,*5A
$GPRMC,021202.0,A,2436.0749,N,12421.5410,E,,,290423,,*03
$GPGGA,021232.0,2436.0853,N,12421.5399,E,1,,,9.3,M,,M,,*69
$GPRMC,021232.0,A,2436.0853,N,12421.5399,E,,,290423,,*02
$GPGGA,021302.0,2436.0776,N,12421.5585,E,1,,,9.3,M,,M,,*68
$GPRMC,021302.0,A,2436.0776,N,12421.5585,E,,,290423,,*03
$GPGGA,021332.0,2436.0128,N,12421.5653,E,1,,,7.5,M,,M,,*66
$GPRMC,021332.0,A,2436.0128,N,12421.5653,E,,,290423,,*05
$GPGGA,021402.0,2435.9980,N,12421.5689,E,1,,,9.0,M,,M,,*6E
$GPRMC,021402.0,A,2435.9980,N,12421.5689,E,,,290423,,*06
$GPGGA,021432.0,2435.9975,N,12421.5690,E,1,,,11.5,M,,M,,*53
$GPRMC,021432.0,A,2435.9975,N,12421.5690,E,,,290423,,*07
$GPGGA,021502.0,2436.0051,N,12421.5657,E,1,,,14.2,M,,M,,*5D
$GPRMC,021502.0,A,2436.0051,N,12421.5657,E,,,290423,,*0B
$GPGGA,021532.0,2436.0135,N,12421.5612,E,1,,,15.9,M,,M,,*56
$GPRMC,021532.0,A,2436.0135,N,12421.5612,E,,,290423,,*0A
$GPGGA,021602.0,2436.0229,N,12421.5575,E,1,,,15.4,M,,M,,*57
$GPRMC,021602.0,A,2436.0229,N,12421.5575,E,,,290423,,*06
$GPGGA,021632.0,2436.0338,N,12421.5538,E,1,,,13.2,M,,M,,*5C
$GPRMC,021632.0,A,2436.0338,N,12421.5538,E,,,290423,,*0D
$GPGGA,021702.0,2436.0438,N,12421.5511,E,1,,,12.8,M,,M,,*59
$GPRMC,021702.0,A,2436.0438,N,12421.5511,E,,,290423,,*03
$GPGGA,021732.0,2436.0544,N,12421.5484,E,1,,,13.4,M,,M,,*50
$GPRMC,021732.0,A,2436.0544,N,12421.5484,E,,,290423,,*07
$GPGGA,021802.0,2436.0644,N,12421.5451,E,1,,,15.2,M,,M,,*57
$GPRMC,021802.0,A,2436.0644,N,12421.5451,E,,,290423,,*00
$GPGGA,021832.0,2436.0746,N,12421.5421,E,1,,,14.3,M,,M,,*50
$GPRMC,021832.0,A,2436.0746,N,12421.5421,E,,,290423,,*07
$GPGGA,021902.0,2436.0852,N,12421.5387,E,1,,,12.6,M,,M,,*50
$GPRMC,021902.0,A,2436.0852,N,12421.5387,E,,,290423,,*04
$GPGGA,021932.0,2436.0950,N,12421.5356,E,1,,,13.2,M,,M,,*59
$GPRMC,021932.0,A,2436.0950,N,12421.5356,E,,,290423,,*08
$GPGGA,022002.0,2436.1051,N,12421.5322,E,1,,,13.6,M,,M,,*5E
$GPRMC,022002.0,A,2436.1051,N,12421.5322,E,,,290423,,*0B
$GPGGA,022032.0,2436.1152,N,12421.5293,E,1,,,12.7,M,,M,,*54
$GPRMC,022032.0,A,2436.1152,N,12421.5293,E,,,290423,,*01
$GPGGA,022102.0,2436.1251,N,12421.5260,E,1,,,15.0,M,,M,,*5A
$GPRMC,022102.0,A,2436.1251,N,12421.5260,E,,,290423,,*0F
$GPGGA,022132.0,2436.1350,N,12421.5228,E,1,,,15.1,M,,M,,*54
$GPRMC,022132.0,A,2436.1350,N,12421.5228,E,,,290423,,*00
$GPGGA,022202.0,2436.1449,N,12421.5198,E,1,,,13.9,M,,M,,*5D
$GPRMC,022202.0,A,2436.1449,N,12421.5198,E,,,290423,,*07
$GPGGA,022232.0,2436.1541,N,12421.5163,E,1,,,15.8,M,,M,,*54
$GPRMC,022232.0,A,2436.1541,N,12421.5163,E,,,290423,,*09
$GPGGA,022302.0,2436.1635,N,12421.5136,E,1,,,18.3,M,,M,,*50
$GPRMC,022302.0,A,2436.1635,N,12421.5136,E,,,290423,,*0B
$GPGGA,022332.0,2436.1737,N,12421.5104,E,1,,,17.8,M,,M,,*55
$GPRMC,022332.0,A,2436.1737,N,12421.5104,E,,,290423,,*0A
$GPGGA,022402.0,2436.1835,N,12421.5083,E,1,,,16.1,M,,M,,*5A
$GPRMC,022402.0,A,2436.1835,N,12421.5083,E,,,290423,,*0D
$GPGGA,022432.0,2436.1936,N,12421.5054,E,1,,,16.3,M,,M,,*53
$GPRMC,022432.0,A,2436.1936,N,12421.5054,E,,,290423,,*06
$GPGGA,022502.0,2436.2034,N,12421.5030,E,1,,,15.9,M,,M,,*52
$GPRMC,022502.0,A,2436.2034,N,12421.5030,E,,,290423,,*0E
$GPGGA,022532.0,2436.2127,N,12421.5004,E,1,,,15.2,M,,M,,*5E
$GPRMC,022532.0,A,2436.2127,N,12421.5004,E,,,290423,,*09
$GPGGA,022602.0,2436.2217,N,12421.4984,E,1,,,14.7,M,,M,,*5A
$GPRMC,022602.0,A,2436.2217,N,12421.4984,E,,,290423,,*09
$GPGGA,022632.0,2436.2277,N,12421.4891,E,1,,,15.6,M,,M,,*5A
$GPRMC,022632.0,A,2436.2277,N,12421.4891,E,,,290423,,*09
$GPGGA,022702.0,2436.1561,N,12421.4180,E,1,,,17.8,M,,M,,*5E
$GPRMC,022702.0,A,2436.1561,N,12421.4180,E,,,290423,,*01
$GPGGA,022732.0,2436.0857,N,12421.3301,E,1,,,16.6,M,,M,,*57
$GPRMC,022732.0,A,2436.0857,N,12421.3301,E,,,290423,,*07
$GPGGA,022802.0,2436.0691,N,12421.3030,E,1,,,15.9,M,,M,,*52
$GPRMC,022802.0,A,2436.0691,N,12421.3030,E,,,290423,,*0E
$GPGGA,022832.0,2436.0724,N,12421.3004,E,1,,,12.4,M,,M,,*53
$GPRMC,022832.0,A,2436.0724,N,12421.3004,E,,,290423,,*05
$GPGGA,022902.0,2436.0747,N,12421.2985,E,1,,,12.6,M,,M,,*57
$GPRMC,022902.0,A,2436.0747,N,12421.2985,E,,,290423,,*03
$GPGGA,022932.0,2436.0781,N,12421.2963,E,1,,,13.6,M,,M,,*57
$GPRMC,022932.0,A,2436.0781,N,12421.2963,E,,,290423,,*02
$GPGGA,023002.0,2436.0519,N,12421.2933,E,1,,,14.1,M,,M,,*5A
$GPRMC,023002.0,A,2436.0519,N,12421.2933,E,,,290423,,*0F
$GPGGA,023032.0,2435.9953,N,12421.3296,E,1,,,12.2,M,,M,,*51
$GPRMC,023032.0,A,2435.9953,N,12421.3296,E,,,290423,,*01
$GPGGA,023102.0,2435.9477,N,12421.3518,E,1,,,11.7,M,,M,,*5F
$GPRMC,023102.0,A,2435.9477,N,12421.3518,E,,,290423,,*09
$GPGGA,023132.0,2435.9466,N,12421.3457,E,1,,,14.2,M,,M,,*56
$GPRMC,023132.0,A,2435.9466,N,12421.3457,E,,,290423,,*00
$GPGGA,023202.0,2435.9502,N,12421.3409,E,1,,,14.9,M,,M,,*55
$GPRMC,023202.0,A,2435.9502,N,12421.3409,E,,,290423,,*08
$GPGGA,023232.0,2435.9519,N,12421.3396,E,1,,,15.1,M,,M,,*54
$GPRMC,023232.0,A,2435.9519,N,12421.3396,E,,,290423,,*00
$GPGGA,023302.0,2435.9575,N,12421.3256,E,1,,,12.2,M,,M,,*55
$GPRMC,023302.0,A,2435.9575,N,12421.3256,E,,,290423,,*05
$GPGGA,023332.0,2435.9690,N,12421.3201,E,1,,,13.3,M,,M,,*5C
$GPRMC,023332.0,A,2435.9690,N,12421.3201,E,,,290423,,*0C
$GPGGA,023456.4,2435.9657,N,12421.3071,E,1,,,11.3,M,,M,,*51
$GPRMC,023456.4,A,2435.9657,N,12421.3071,E,,,290423,,*03
$GPGGA,023526.0,2435.9685,N,12421.2951,E,1,,,5.3,M,,M,,*63
$GPRMC,023526.0,A,2435.9685,N,12421.2951,E,,,290423,,*04
$GPGGA,023556.0,2435.9789,N,12421.3034,E,1,,,13.5,M,,M,,*53
$GPRMC,023556.0,A,2435.9789,N,12421.3034,E,,,290423,,*05
$GPGGA,023626.0,2435.9888,N,12421.3088,E,1,,,13.3,M,,M,,*58
$GPRMC,023626.0,A,2435.9888,N,12421.3088,E,,,290423,,*08
$GPGGA,023656.0,2436.0289,N,12421.3080,E,1,,,11.3,M,,M,,*54
$GPRMC,023656.0,A,2436.0289,N,12421.3080,E,,,290423,,*06
$GPGGA,023726.0,2436.0723,N,12421.2975,E,1,,,10.3,M,,M,,*54
$GPRMC,023726.0,A,2436.0723,N,12421.2975,E,,,290423,,*07
$GPGGA,023756.0,2436.1158,N,12421.2880,E,1,,,10.0,M,,M,,*50
$GPRMC,023756.0,A,2436.1158,N,12421.2880,E,,,290423,,*00
$GPGGA,023826.0,2436.1590,N,12421.2777,E,1,,,9.3,M,,M,,*64
$GPRMC,023826.0,A,2436.1590,N,12421.2777,E,,,290423,,*0F
$GPGGA,023856.0,2436.2028,N,12421.2664,E,1,,,7.6,M,,M,,*6E
$GPRMC,023856.0,A,2436.2028,N,12421.2664,E,,,290423,,*0E
$GPGGA,023926.0,2436.2462,N,12421.2561,E,1,,,7.1,M,,M,,*63
$GPRMC,023926.0,A,2436.2462,N,12421.2561,E,,,290423,,*04
$GPGGA,023956.0,2436.2909,N,12421.2474,E,1,,,6.8,M,,M,,*69
$GPRMC,023956.0,A,2436.2909,N,12421.2474,E,,,290423,,*06
$GPGGA,024026.0,2436.3315,N,12421.2267,E,1,,,8.4,M,,M,,*60
$GPRMC,024026.0,A,2436.3315,N,12421.2267,E,,,290423,,*0D
$GPGGA,024056.0,2436.3725,N,12421.2029,E,1,,,10.4,M,,M,,*51
$GPRMC,024056.0,A,2436.3725,N,12421.2029,E,,,290423,,*05
$GPGGA,024126.0,2436.4130,N,12421.1779,E,1,,,12.9,M,,M,,*5C
$GPRMC,024126.0,A,2436.4130,N,12421.1779,E,,,290423,,*07
$GPGGA,024156.0,2436.4530,N,12421.1520,E,1,,,11.7,M,,M,,*5C
$GPRMC,024156.0,A,2436.4530,N,12421.1520,E,,,290423,,*0A
$GPGGA,024226.0,2436.4940,N,12421.1262,E,1,,,11.5,M,,M,,*50
$GPRMC,024226.0,A,2436.4940,N,12421.1262,E,,,290423,,*04
$GPGGA,024256.0,2436.5355,N,12421.1004,E,1,,,11.3,M,,M,,*5C
$GPRMC,024256.0,A,2436.5355,N,12421.1004,E,,,290423,,*0E
$GPGGA,024326.0,2436.5772,N,12421.0750,E,1,,,10.8,M,,M,,*56
$GPRMC,024326.0,A,2436.5772,N,12421.0750,E,,,290423,,*0E
$GPGGA,024356.0,2436.6157,N,12421.0456,E,1,,,10.9,M,,M,,*57
$GPRMC,024356.0,A,2436.6157,N,12421.0456,E,,,290423,,*0E
$GPGGA,024426.0,2436.6159,N,12421.0203,E,1,,,10.5,M,,M,,*53
$GPRMC,024426.0,A,2436.6159,N,12421.0203,E,,,290423,,*06
$GPGGA,024456.0,2436.6167,N,12421.0081,E,1,,,12.3,M,,M,,*55
$GPRMC,024456.0,A,2436.6167,N,12421.0081,E,,,290423,,*04
$GPGGA,024526.0,2436.6200,N,12421.0008,E,1,,,12.8,M,,M,,*5B
$GPRMC,024526.0,A,2436.6200,N,12421.0008,E,,,290423,,*01
$GPGGA,024556.0,2436.6244,N,12420.9964,E,1,,,12.5,M,,M,,*5A
$GPRMC,024556.0,A,2436.6244,N,12420.9964,E,,,290423,,*0D
$GPGGA,024626.0,2436.6293,N,12420.9929,E,1,,,12.2,M,,M,,*5A
$GPRMC,024626.0,A,2436.6293,N,12420.9929,E,,,290423,,*0A
$GPGGA,024656.0,2436.6342,N,12420.9900,E,1,,,11.0,M,,M,,*5A
$GPRMC,024656.0,A,2436.6342,N,12420.9900,E,,,290423,,*0B
$GPGGA,024726.0,2436.6386,N,12420.9862,E,1,,,10.9,M,,M,,*59
$GPRMC,024726.0,A,2436.6386,N,12420.9862,E,,,290423,,*00
$GPGGA,024756.0,2436.6430,N,12420.9828,E,1,,,11.4,M,,M,,*56
$GPRMC,024756.0,A,2436.6430,N,12420.9828,E,,,290423,,*03
$GPGGA,024826.0,2436.6474,N,12420.9799,E,1,,,11.5,M,,M,,*5A
$GPRMC,024826.0,A,2436.6474,N,12420.9799,E,,,290423,,*0E
$GPGGA,024856.0,2436.6518,N,12420.9773,E,1,,,11.4,M,,M,,*53
$GPRMC,024856.0,A,2436.6518,N,12420.9773,E,,,290423,,*06
$GPGGA,024926.0,2436.6567,N,12420.9740,E,1,,,11.7,M,,M,,*5E
$GPRMC,024926.0,A,2436.6567,N,12420.9740,E,,,290423,,*08
$GPGGA,024956.0,2436.6617,N,12420.9710,E,1,,,12.9,M,,M,,*55
$GPRMC,024956.0,A,2436.6617,N,12420.9710,E,,,290423,,*0E
$GPGGA,025026.0,2436.6665,N,12420.9680,E,1,,,13.1,M,,M,,*5E
$GPRMC,025026.0,A,2436.6665,N,12420.9680,E,,,290423,,*0C
$GPGGA,025056.0,2436.6717,N,12420.9651,E,1,,,12.0,M,,M,,*51
$GPRMC,025056.0,A,2436.6717,N,12420.9651,E,,,290423,,*03
$GPGGA,025126.0,2436.6767,N,12420.9625,E,1,,,12.4,M,,M,,*57
$GPRMC,025126.0,A,2436.6767,N,12420.9625,E,,,290423,,*01
$GPGGA,025156.0,2436.6815,N,12420.9599,E,1,,,11.0,M,,M,,*59
$GPRMC,025156.0,A,2436.6815,N,12420.9599,E,,,290423,,*08
$GPGGA,025226.0,2436.6864,N,12420.9568,E,1,,,12.2,M,,M,,*54
$GPRMC,025226.0,A,2436.6864,N,12420.9568,E,,,290423,,*04
$GPGGA,025256.1,2436.6914,N,12420.9534,E,1,,,13.2,M,,M,,*5C
$GPRMC,025256.1,A,2436.6914,N,12420.9534,E,,,290423,,*0D
$GPGGA,025326.0,2436.6964,N,12420.9509,E,1,,,13.0,M,,M,,*50
$GPRMC,025326.0,A,2436.6964,N,12420.9509,E,,,290423,,*03
$GPGGA,025356.0,2436.7012,N,12420.9477,E,1,,,14.8,M,,M,,*59
$GPRMC,025356.0,A,2436.7012,N,12420.9477,E,,,290423,,*05
$GPGGA,025426.0,2436.7061,N,12420.9436,E,1,,,14.9,M,,M,,*59
$GPRMC,025426.0,A,2436.7061,N,12420.9436,E,,,290423,,*04
$GPGGA,025456.0,2436.7114,N,12420.9405,E,1,,,15.1,M,,M,,*54
$GPRMC,025456.0,A,2436.7114,N,12420.9405,E,,,290423,,*00
$GPGGA,025526.0,2436.7170,N,12420.9379,E,1,,,14.4,M,,M,,*58
$GPRMC,025526.0,A,2436.7170,N,12420.9379,E,,,290423,,*08
$GPGGA,025556.0,2436.7229,N,12420.9351,E,1,,,14.6,M,,M,,*58
$GPRMC,025556.0,A,2436.7229,N,12420.9351,E,,,290423,,*0A
$GPGGA,025626.0,2436.7287,N,12420.9322,E,1,,,15.4,M,,M,,*5F
$GPRMC,025626.0,A,2436.7287,N,12420.9322,E,,,290423,,*0E
$GPGGA,025656.0,2436.7346,N,12420.9296,E,1,,,15.7,M,,M,,*59
$GPRMC,025656.0,A,2436.7346,N,12420.9296,E,,,290423,,*0B
$GPGGA,025726.0,2436.7401,N,12420.9265,E,1,,,13.2,M,,M,,*54
$GPRMC,025726.0,A,2436.7401,N,12420.9265,E,,,290423,,*05
$GPGGA,025756.0,2436.7463,N,12420.9237,E,1,,,13.8,M,,M,,*5A
$GPRMC,025756.0,A,2436.7463,N,12420.9237,E,,,290423,,*01
$GPGGA,025826.0,2436.7528,N,12420.9214,E,1,,,14.6,M,,M,,*54
$GPRMC,025826.0,A,2436.7528,N,12420.9214,E,,,290423,,*06
$GPGGA,025856.0,2436.7589,N,12420.9185,E,1,,,13.9,M,,M,,*5B
$GPRMC,025856.0,A,2436.7589,N,12420.9185,E,,,290423,,*01
$GPGGA,025926.0,2436.7649,N,12420.9161,E,1,,,15.9,M,,M,,*5E
$GPRMC,025926.0,A,2436.7649,N,12420.9161,E,,,290423,,*02
$GPGGA,025956.0,2436.7713,N,12420.9139,E,1,,,14.4,M,,M,,*56
$GPRMC,025956.0,A,2436.7713,N,12420.9139,E,,,290423,,*06
$GPGGA,030026.0,2436.7778,N,12420.9112,E,1,,,15.2,M,,M,,*5F
$GPRMC,030026.0,A,2436.7778,N,12420.9112,E,,,290423,,*08
$GPGGA,030056.0,2436.7841,N,12420.9093,E,1,,,14.8,M,,M,,*5E
$GPRMC,030056.0,A,2436.7841,N,12420.9093,E,,,290423,,*02
$GPGGA,030126.0,2436.7903,N,12420.9073,E,1,,,15.1,M,,M,,*59
$GPRMC,030126.0,A,2436.7903,N,12420.9073,E,,,290423,,*0D
$GPGGA,030156.0,2436.7963,N,12420.9040,E,1,,,15.3,M,,M,,*5A
$GPRMC,030156.0,A,2436.7963,N,12420.9040,E,,,290423,,*0C
$GPGGA,030226.0,2436.8021,N,12420.9014,E,1,,,14.4,M,,M,,*59
$GPRMC,030226.0,A,2436.8021,N,12420.9014,E,,,290423,,*09
$GPGGA,030256.0,2436.8079,N,12420.8983,E,1,,,14.7,M,,M,,*56
$GPRMC,030256.0,A,2436.8079,N,12420.8983,E,,,290423,,*05
$GPGGA,030326.0,2436.8137,N,12420.8952,E,1,,,15.5,M,,M,,*54
$GPRMC,030326.0,A,2436.8137,N,12420.8952,E,,,290423,,*04
$GPGGA,030356.0,2436.8194,N,12420.8930,E,1,,,15.4,M,,M,,*5F
$GPRMC,030356.0,A,2436.8194,N,12420.8930,E,,,290423,,*0E
$GPGGA,030426.0,2436.8247,N,12420.8897,E,1,,,14.4,M,,M,,*5F
$GPRMC,030426.0,A,2436.8247,N,12420.8897,E,,,290423,,*0F
$GPGGA,030456.0,2436.8299,N,12420.8869,E,1,,,14.9,M,,M,,*57
$GPRMC,030456.0,A,2436.8299,N,12420.8869,E,,,290423,,*0A
$GPGGA,030526.0,2436.8349,N,12420.8847,E,1,,,15.2,M,,M,,*5B
$GPRMC,030526.0,A,2436.8349,N,12420.8847,E,,,290423,,*0C
$GPGGA,030556.0,2436.8397,N,12420.8819,E,1,,,14.3,M,,M,,*54
$GPRMC,030556.0,A,2436.8397,N,12420.8819,E,,,290423,,*03
$GPGGA,030626.0,2436.8445,N,12420.8786,E,1,,,14.3,M,,M,,*51
$GPRMC,030626.0,A,2436.8445,N,12420.8786,E,,,290423,,*06
$GPGGA,030656.0,2436.8489,N,12420.8755,E,1,,,15.1,M,,M,,*5B
$GPRMC,030656.0,A,2436.8489,N,12420.8755,E,,,290423,,*0F
$GPGGA,030726.0,2436.8538,N,12420.8716,E,1,,,14.9,M,,M,,*58
$GPRMC,030726.0,A,2436.8538,N,12420.8716,E,,,290423,,*05
$GPGGA,030820.3,2436.8619,N,12420.8704,E,1,,,5.2,M,,M,,*6A
$GPRMC,030820.3,A,2436.8619,N,12420.8704,E,,,290423,,*0C
$GPGGA,030850.0,2436.8677,N,12420.8680,E,1,,,4.9,M,,M,,*61
$GPRMC,030850.0,A,2436.8677,N,12420.8680,E,,,290423,,*0D
$GPGGA,030920.0,2436.8731,N,12420.8640,E,1,,,-2.4,M,,M,,*4E
$GPRMC,030920.0,A,2436.8731,N,12420.8640,E,,,290423,,*04
$GPGGA,030950.0,2436.8765,N,12420.8606,E,1,,,-0.5,M,,M,,*49
$GPRMC,030950.0,A,2436.8765,N,12420.8606,E,,,290423,,*00
$GPGGA,031020.0,2436.8814,N,12420.8557,E,1,,,-6.2,M,,M,,*49
$GPRMC,031020.0,A,2436.8814,N,12420.8557,E,,,290423,,*01
$GPGGA,031050.0,2436.8845,N,12420.8441,E,1,,,12.4,M,,M,,*52
$GPRMC,031050.0,A,2436.8845,N,12420.8441,E,,,290423,,*04
$GPGGA,031120.0,2436.8754,N,12420.8059,E,1,,,13.3,M,,M,,*50
$GPRMC,031120.0,A,2436.8754,N,12420.8059,E,,,290423,,*00
$GPGGA,031150.0,2436.8637,N,12420.7573,E,1,,,15.5,M,,M,,*51
$GPRMC,031150.0,A,2436.8637,N,12420.7573,E,,,290423,,*01
$GPGGA,031220.0,2436.8457,N,12420.7308,E,1,,,15.2,M,,M,,*5C
$GPRMC,031220.0,A,2436.8457,N,12420.7308,E,,,290423,,*0B
$GPGGA,031250.0,2436.8406,N,12420.7144,E,1,,,15.5,M,,M,,*52
$GPRMC,031250.0,A,2436.8406,N,12420.7144,E,,,290423,,*02
$GPGGA,031320.0,2436.8448,N,12420.7025,E,1,,,15.7,M,,M,,*5A
$GPRMC,031320.0,A,2436.8448,N,12420.7025,E,,,290423,,*08
$GPGGA,031350.0,2436.8508,N,12420.6947,E,1,,,14.6,M,,M,,*54
$GPRMC,031350.0,A,2436.8508,N,12420.6947,E,,,290423,,*06
$GPGGA,031420.0,2436.8568,N,12420.6891,E,1,,,15.7,M,,M,,*58
$GPRMC,031420.0,A,2436.8568,N,12420.6891,E,,,290423,,*0A
$GPGGA,031450.0,2436.8633,N,12420.6838,E,1,,,15.7,M,,M,,*51
$GPRMC,031450.0,A,2436.8633,N,12420.6838,E,,,290423,,*03
$GPGGA,031520.0,2436.8698,N,12420.6784,E,1,,,16.0,M,,M,,*5A
$GPRMC,031520.0,A,2436.8698,N,12420.6784,E,,,290423,,*0C
$GPGGA,031550.0,2436.8759,N,12420.6728,E,1,,,16.4,M,,M,,*53
$GPRMC,031550.0,A,2436.8759,N,12420.6728,E,,,290423,,*01
$GPGGA,031620.0,2436.8818,N,12420.6679,E,1,,,16.0,M,,M,,*5C
$GPRMC,031620.0,A,2436.8818,N,12420.6679,E,,,290423,,*0A
$GPGGA,031650.0,2436.8877,N,12420.6631,E,1,,,15.1,M,,M,,*5C
$GPRMC,031650.0,A,2436.8877,N,12420.6631,E,,,290423,,*08
$GPGGA,031720.0,2436.8939,N,12420.6578,E,1,,,14.6,M,,M,,*59
$GPRMC,031720.0,A,2436.8939,N,12420.6578,E,,,290423,,*0B
$GPGGA,031750.0,2436.9044,N,12420.6420,E,1,,,14.5,M,,M,,*53
$GPRMC,031750.0,A,2436.9044,N,12420.6420,E,,,290423,,*02
$GPGGA,031820.0,2436.9111,N,12420.7137,E,1,,,13.2,M,,M,,*58
$GPRMC,031820.0,A,2436.9111,N,12420.7137,E,,,290423,,*09
$GPGGA,031850.0,2436.8571,N,12420.8071,E,1,,,9.9,M,,M,,*60
$GPRMC,031850.0,A,2436.8571,N,12420.8071,E,,,290423,,*01
$GPGGA,031920.0,2436.8183,N,12420.8117,E,1,,,9.6,M,,M,,*61
$GPRMC,031920.0,A,2436.8183,N,12420.8117,E,,,290423,,*0F
$GPGGA,031950.0,2436.8660,N,12420.6949,E,1,,,14.0,M,,M,,*5B
$GPRMC,031950.0,A,2436.8660,N,12420.6949,E,,,290423,,*0F
$GPGGA,032020.0,2436.8705,N,12420.6797,E,1,,,15.5,M,,M,,*5D
$GPRMC,032020.0,A,2436.8705,N,12420.6797,E,,,290423,,*0D
$GPGGA,032050.0,2436.8766,N,12420.6755,E,1,,,16.2,M,,M,,*55
$GPRMC,032050.0,A,2436.8766,N,12420.6755,E,,,290423,,*01
$GPGGA,032120.0,2436.8831,N,12420.6702,E,1,,,16.4,M,,M,,*5A
$GPRMC,032120.0,A,2436.8831,N,12420.6702,E,,,290423,,*08
$GPGGA,032150.0,2436.8895,N,12420.6644,E,1,,,16.0,M,,M,,*54
$GPRMC,032150.0,A,2436.8895,N,12420.6644,E,,,290423,,*02
$GPGGA,032220.0,2436.8956,N,12420.6583,E,1,,,17.3,M,,M,,*54
$GPRMC,032220.0,A,2436.8956,N,12420.6583,E,,,290423,,*00
$GPGGA,032250.0,2436.9008,N,12420.6523,E,1,,,16.7,M,,M,,*5F
$GPRMC,032250.0,A,2436.9008,N,12420.6523,E,,,290423,,*0E
$GPGGA,032320.0,2436.9062,N,12420.6466,E,1,,,17.7,M,,M,,*54
$GPRMC,032320.0,A,2436.9062,N,12420.6466,E,,,290423,,*04
$GPGGA,032350.0,2436.9111,N,12420.6393,E,1,,,16.9,M,,M,,*54
$GPRMC,032350.0,A,2436.9111,N,12420.6393,E,,,290423,,*0B
$GPGGA,032420.0,2436.9155,N,12420.6312,E,1,,,18.5,M,,M,,*5F
$GPRMC,032420.0,A,2436.9155,N,12420.6312,E,,,290423,,*02
$GPGGA,032450.0,2436.9206,N,12420.6242,E,1,,,18.7,M,,M,,*5B
$GPRMC,032450.0,A,2436.9206,N,12420.6242,E,,,290423,,*04
$GPGGA,032520.0,2436.9254,N,12420.6167,E,1,,,19.2,M,,M,,*5A
$GPRMC,032520.0,A,2436.9254,N,12420.6167,E,,,290423,,*01
$GPGGA,032550.0,2436.9302,N,12420.6095,E,1,,,18.7,M,,M,,*57
$GPRMC,032550.0,A,2436.9302,N,12420.6095,E,,,290423,,*08
$GPGGA,032620.0,2436.9359,N,12420.6021,E,1,,,18.6,M,,M,,*53
$GPRMC,032620.0,A,2436.9359,N,12420.6021,E,,,290423,,*0D
$GPGGA,032650.0,2436.9411,N,12420.5944,E,1,,,17.4,M,,M,,*5B
$GPRMC,032650.0,A,2436.9411,N,12420.5944,E,,,290423,,*08
$GPGGA,032720.0,2436.9464,N,12420.5860,E,1,,,17.0,M,,M,,*5C
$GPRMC,032720.0,A,2436.9464,N,12420.5860,E,,,290423,,*0B
$GPGGA,032750.0,2436.9518,N,12420.5773,E,1,,,16.7,M,,M,,*5A
$GPRMC,032750.0,A,2436.9518,N,12420.5773,E,,,290423,,*0B
$GPGGA,032820.0,2436.9577,N,12420.5686,E,1,,,17.0,M,,M,,*56
$GPRMC,032820.0,A,2436.9577,N,12420.5686,E,,,290423,,*01
$GPGGA,032850.0,2436.9641,N,12420.5608,E,1,,,15.9,M,,M,,*5A
$GPRMC,032850.0,A,2436.9641,N,12420.5608,E,,,290423,,*06
$GPGGA,032920.0,2436.9707,N,12420.5532,E,1,,,16.0,M,,M,,*5F
$GPRMC,032920.0,A,2436.9707,N,12420.5532,E,,,290423,,*09
$GPGGA,032950.0,2436.9769,N,12420.5456,E,1,,,15.4,M,,M,,*54
$GPRMC,032950.0,A,2436.9769,N,12420.5456,E,,,290423,,*05
$GPGGA,033020.0,2436.9838,N,12420.5371,E,1,,,15.6,M,,M,,*50
$GPRMC,033020.0,A,2436.9838,N,12420.5371,E,,,290423,,*03
$GPGGA,033050.0,2436.9906,N,12420.5286,E,1,,,17.1,M,,M,,*57
$GPRMC,033050.0,A,2436.9906,N,12420.5286,E,,,290423,,*01
$GPGGA,033120.0,2436.9977,N,12420.5198,E,1,,,18.1,M,,M,,*54
$GPRMC,033120.0,A,2436.9977,N,12420.5198,E,,,290423,,*0D
$GPGGA,033150.0,2437.0045,N,12420.5105,E,1,,,18.5,M,,M,,*53
$GPRMC,033150.0,A,2437.0045,N,12420.5105,E,,,290423,,*0E
$GPGGA,033220.0,2437.0113,N,12420.5014,E,1,,,19.5,M,,M,,*55
$GPRMC,033220.0,A,2437.0113,N,12420.5014,E,,,290423,,*09
$GPGGA,033250.0,2437.0180,N,12420.4918,E,1,,,20.0,M,,M,,*53
$GPRMC,033250.0,A,2437.0180,N,12420.4918,E,,,290423,,*00
$GPGGA,033320.0,2437.0245,N,12420.4831,E,1,,,19.5,M,,M,,*5A
$GPRMC,033320.0,A,2437.0245,N,12420.4831,E,,,290423,,*06
$GPGGA,033350.0,2437.0312,N,12420.4738,E,1,,,18.6,M,,M,,*5A
$GPRMC,033350.0,A,2437.0312,N,12420.4738,E,,,290423,,*04
$GPGGA,033420.0,2437.0377,N,12420.4638,E,1,,,18.1,M,,M,,*5F
$GPRMC,033420.0,A,2437.0377,N,12420.4638,E,,,290423,,*06
$GPGGA,033450.0,2436.9997,N,12420.4950,E,1,,,17.0,M,,M,,*5B
$GPRMC,033450.0,A,2436.9997,N,12420.4950,E,,,290423,,*0C
$GPGGA,033520.0,2436.9681,N,12420.5607,E,1,,,15.8,M,,M,,*53
$GPRMC,033520.0,A,2436.9681,N,12420.5607,E,,,290423,,*0E
$GPGGA,033550.0,2436.9416,N,12420.5945,E,1,,,15.2,M,,M,,*5B
$GPRMC,033550.0,A,2436.9416,N,12420.5945,E,,,290423,,*0C
$GPGGA,033620.0,2436.9377,N,12420.6035,E,1,,,14.1,M,,M,,*50
$GPRMC,033620.0,A,2436.9377,N,12420.6035,E,,,290423,,*05
$GPGGA,033650.0,2436.9203,N,12420.6331,E,1,,,13.9,M,,M,,*5D
$GPRMC,033650.0,A,2436.9203,N,12420.6331,E,,,290423,,*07
$GPGGA,033720.0,2436.9101,N,12420.6452,E,1,,,15.1,M,,M,,*56
$GPRMC,033720.0,A,2436.9101,N,12420.6452,E,,,290423,,*02
$GPGGA,033750.0,2436.8982,N,12420.6529,E,1,,,14.8,M,,M,,*56
$GPRMC,033750.0,A,2436.8982,N,12420.6529,E,,,290423,,*0A
$GPGGA,033820.0,2436.8931,N,12420.6470,E,1,,,12.0,M,,M,,*55
$GPRMC,033820.0,A,2436.8931,N,12420.6470,E,,,290423,,*07
$GPGGA,033850.0,2436.8934,N,12420.6372,E,1,,,12.9,M,,M,,*5B
$GPRMC,033850.0,A,2436.8934,N,12420.6372,E,,,290423,,*00
$GPGGA,033920.0,2436.8964,N,12420.6276,E,1,,,13.7,M,,M,,*52
$GPRMC,033920.0,A,2436.8964,N,12420.6276,E,,,290423,,*06
$GPGGA,033950.0,2436.9005,N,12420.6188,E,1,,,13.9,M,,M,,*56
$GPRMC,033950.0,A,2436.9005,N,12420.6188,E,,,290423,,*0C
$GPGGA,034020.0,2436.9045,N,12420.6101,E,1,,,12.4,M,,M,,*56
$GPRMC,034020.0,A,2436.9045,N,12420.6101,E,,,290423,,*00
$GPGGA,034050.0,2436.9089,N,12420.6025,E,1,,,12.0,M,,M,,*52
$GPRMC,034050.0,A,2436.9089,N,12420.6025,E,,,290423,,*00
$GPGGA,034120.0,2436.9132,N,12420.5949,E,1,,,11.8,M,,M,,*5E
$GPRMC,034120.0,A,2436.9132,N,12420.5949,E,,,290423,,*07
$GPGGA,034150.0,2436.9178,N,12420.5872,E,1,,,11.3,M,,M,,*55
$GPRMC,034150.0,A,2436.9178,N,12420.5872,E,,,290423,,*07
$GPGGA,034220.0,2436.9228,N,12420.5791,E,1,,,11.5,M,,M,,*53
$GPRMC,034220.0,A,2436.9228,N,12420.5791,E,,,290423,,*07
$GPGGA,034250.0,2436.9285,N,12420.5711,E,1,,,11.3,M,,M,,*5D
$GPRMC,034250.0,A,2436.9285,N,12420.5711,E,,,290423,,*0F
$GPGGA,034320.0,2436.9341,N,12420.5634,E,1,,,10.8,M,,M,,*5E
$GPRMC,034320.0,A,2436.9341,N,12420.5634,E,,,290423,,*06
$GPGGA,034350.0,2436.9433,N,12420.5353,E,1,,,10.8,M,,M,,*5F
$GPRMC,034350.0,A,2436.9433,N,12420.5353,E,,,290423,,*07
$GPGGA,034420.0,2436.9770,N,12420.4942,E,1,,,11.1,M,,M,,*58
$GPRMC,034420.0,A,2436.9770,N,12420.4942,E,,,290423,,*08
$GPGGA,034450.0,2437.0020,N,12420.4466,E,1,,,10.9,M,,M,,*57
$GPRMC,034450.0,A,2437.0020,N,12420.4466,E,,,290423,,*0E
$GPGGA,034520.0,2437.0075,N,12420.4231,E,1,,,10.9,M,,M,,*55
$GPRMC,034520.0,A,2437.0075,N,12420.4231,E,,,290423,,*0C
$GPGGA,034550.0,2437.0133,N,12420.4153,E,1,,,10.0,M,,M,,*5F
$GPRMC,034550.0,A,2437.0133,N,12420.4153,E,,,290423,,*0F
$GPGGA,034620.0,2437.0197,N,12420.4076,E,1,,,10.2,M,,M,,*51
$GPRMC,034620.0,A,2437.0197,N,12420.4076,E,,,290423,,*03
$GPGGA,034650.0,2437.0262,N,12420.3999,E,1,,,10.2,M,,M,,*50
$GPRMC,034650.0,A,2437.0262,N,12420.3999,E,,,290423,,*02
$GPGGA,034720.0,2437.0328,N,12420.3921,E,1,,,9.7,M,,M,,*67
$GPRMC,034720.0,A,2437.0328,N,12420.3921,E,,,290423,,*08
$GPGGA,034750.0,2437.0393,N,12420.3834,E,1,,,11.2,M,,M,,*59
$GPRMC,034750.0,A,2437.0393,N,12420.3834,E,,,290423,,*0A
$GPGGA,034820.0,2437.0461,N,12420.3755,E,1,,,11.3,M,,M,,*52
$GPRMC,034820.0,A,2437.0461,N,12420.3755,E,,,290423,,*00
$GPGGA,034850.0,2437.0529,N,12420.3674,E,1,,,11.0,M,,M,,*59
$GPRMC,034850.0,A,2437.0529,N,12420.3674,E,,,290423,,*08
$GPGGA,034920.0,2437.0597,N,12420.3591,E,1,,,10.2,M,,M,,*51
$GPRMC,034920.0,A,2437.0597,N,12420.3591,E,,,290423,,*03
$GPGGA,034950.0,2437.0664,N,12420.3510,E,1,,,10.5,M,,M,,*57
$GPRMC,034950.0,A,2437.0664,N,12420.3510,E,,,290423,,*02
$GPGGA,035020.0,2437.0730,N,12420.3428,E,1,,,10.2,M,,M,,*55
$GPRMC,035020.0,A,2437.0730,N,12420.3428,E,,,290423,,*07
$GPGGA,035103.3,2437.0899,N,12420.3358,E,1,,,10.0,M,,M,,*58
$GPRMC,035103.3,A,2437.0899,N,12420.3358,E,,,290423,,*08
$GPGGA,035133.0,2437.0754,N,12420.3141,E,1,,,20.9,M,,M,,*56
$GPRMC,035133.0,A,2437.0754,N,12420.3141,E,,,290423,,*0C
$GPGGA,035203.0,2437.0715,N,12420.3479,E,1,,,20.4,M,,M,,*50
$GPRMC,035203.0,A,2437.0715,N,12420.3479,E,,,290423,,*07
$GPGGA,035233.0,2437.0694,N,12420.3900,E,1,,,10.6,M,,M,,*59
$GPRMC,035233.0,A,2437.0694,N,12420.3900,E,,,290423,,*0F
$GPGGA,035303.0,2437.0535,N,12420.4282,E,1,,,8.5,M,,M,,*6F
$GPRMC,035303.0,A,2437.0535,N,12420.4282,E,,,290423,,*03
$GPGGA,035333.0,2437.0424,N,12420.4418,E,1,,,9.1,M,,M,,*6D
$GPRMC,035333.0,A,2437.0424,N,12420.4418,E,,,290423,,*04
$GPGGA,035403.0,2437.0409,N,12420.4432,E,1,,,7.8,M,,M,,*69
$GPRMC,035403.0,A,2437.0409,N,12420.4432,E,,,290423,,*07
$GPGGA,035433.0,2437.0440,N,12420.4470,E,1,,,12.9,M,,M,,*54
$GPRMC,035433.0,A,2437.0440,N,12420.4470,E,,,290423,,*0F
$GPGGA,035503.0,2437.0410,N,12420.4499,E,1,,,12.7,M,,M,,*5A
$GPRMC,035503.0,A,2437.0410,N,12420.4499,E,,,290423,,*0F
$GPGGA,035533.0,2437.0440,N,12420.4434,E,1,,,9.6,M,,M,,*60
$GPRMC,035533.0,A,2437.0440,N,12420.4434,E,,,290423,,*0E
$GPGGA,035603.0,2437.0485,N,12420.4332,E,1,,,10.5,M,,M,,*53
$GPRMC,035603.0,A,2437.0485,N,12420.4332,E,,,290423,,*06
$GPGGA,035633.0,2437.0539,N,12420.4217,E,1,,,11.1,M,,M,,*55
$GPRMC,035633.0,A,2437.0539,N,12420.4217,E,,,290423,,*05
$GPGGA,035703.0,2437.0596,N,12420.4122,E,1,,,12.9,M,,M,,*5C
$GPRMC,035703.0,A,2437.0596,N,12420.4122,E,,,290423,,*07
$GPGGA,035733.0,2437.0652,N,12420.4032,E,1,,,13.3,M,,M,,*5F
$GPRMC,035733.0,A,2437.0652,N,12420.4032,E,,,290423,,*0F
$GPGGA,035803.0,2437.0712,N,12420.3949,E,1,,,14.0,M,,M,,*50
$GPRMC,035803.0,A,2437.0712,N,12420.3949,E,,,290423,,*04
$GPGGA,035833.0,2437.0428,N,12420.4094,E,1,,,13.6,M,,M,,*56
$GPRMC,035833.0,A,2437.0428,N,12420.4094,E,,,290423,,*03
$GPGGA,035903.0,2436.9541,N,12420.4567,E,1,,,14.4,M,,M,,*5E
$GPRMC,035903.0,A,2436.9541,N,12420.4567,E,,,290423,,*0E
$GPGGA,035933.0,2436.9430,N,12420.4441,E,1,,,11.1,M,,M,,*5F
$GPRMC,035933.0,A,2436.9430,N,12420.4441,E,,,290423,,*0F
$GPGGA,040003.0,2436.9477,N,12420.4390,E,1,,,11.7,M,,M,,*59
$GPRMC,040003.0,A,2436.9477,N,12420.4390,E,,,290423,,*0F
$GPGGA,040033.0,2436.9538,N,12420.4332,E,1,,,11.4,M,,M,,*5B
$GPRMC,040033.0,A,2436.9538,N,12420.4332,E,,,290423,,*0E
$GPGGA,040103.0,2436.9606,N,12420.4262,E,1,,,10.3,M,,M,,*55
$GPRMC,040103.0,A,2436.9606,N,12420.4262,E,,,290423,,*06
$GPGGA,040133.0,2436.9668,N,12420.4189,E,1,,,10.1,M,,M,,*5A
$GPRMC,040133.0,A,2436.9668,N,12420.4189,E,,,290423,,*0B
$GPGGA,040203.0,2436.9922,N,12420.3927,E,1,,,10.4,M,,M,,*55
$GPRMC,040203.0,A,2436.9922,N,12420.3927,E,,,290423,,*01
$GPGGA,040233.0,2437.0296,N,12420.3298,E,1,,,8.9,M,,M,,*61
$GPRMC,040233.0,A,2437.0296,N,12420.3298,E,,,290423,,*01
$GPGGA,040303.0,2437.0684,N,12420.2880,E,1,,,10.0,M,,M,,*56
$GPRMC,040303.0,A,2437.0684,N,12420.2880,E,,,290423,,*06
$GPGGA,040333.0,2437.0742,N,12420.2795,E,1,,,7.7,M,,M,,*64
$GPRMC,040333.0,A,2437.0742,N,12420.2795,E,,,290423,,*05
$GPGGA,040403.0,2437.0777,N,12420.2687,E,1,,,6.6,M,,M,,*64
$GPRMC,040403.0,A,2437.0777,N,12420.2687,E,,,290423,,*05
$GPGGA,040433.0,2437.0833,N,12420.2600,E,1,,,5.8,M,,M,,*6A
$GPRMC,040433.0,A,2437.0833,N,12420.2600,E,,,290423,,*06
$GPGGA,040503.0,2437.0898,N,12420.2518,E,1,,,5.8,M,,M,,*63
$GPRMC,040503.0,A,2437.0898,N,12420.2518,E,,,290423,,*0F
$GPGGA,040533.0,2437.0963,N,12420.2435,E,1,,,6.6,M,,M,,*66
$GPRMC,040533.0,A,2437.0963,N,12420.2435,E,,,290423,,*07
$GPGGA,040603.0,2437.1033,N,12420.2353,E,1,,,8.9,M,,M,,*6D
$GPRMC,040603.0,A,2437.1033,N,12420.2353,E,,,290423,,*0D
$GPGGA,040633.0,2437.1089,N,12420.2656,E,1,,,10.3,M,,M,,*5C
$GPRMC,040633.0,A,2437.1089,N,12420.2656,E,,,290423,,*0F
$GPGGA,040703.0,2437.0798,N,12420.3283,E,1,,,11.1,M,,M,,*56
$GPRMC,040703.0,A,2437.0798,N,12420.3283,E,,,290423,,*06
$GPGGA,040733.0,2437.0291,N,12420.3611,E,1,,,9.7,M,,M,,*69
$GPRMC,040733.0,A,2437.0291,N,12420.3611,E,,,290423,,*06
$GPGGA,040803.0,2437.0238,N,12420.3538,E,1,,,10.7,M,,M,,*56
$GPRMC,040803.0,A,2437.0238,N,12420.3538,E,,,290423,,*01
$GPGGA,040833.0,2437.0267,N,12420.3413,E,1,,,10.7,M,,M,,*57
$GPRMC,040833.0,A,2437.0267,N,12420.3413,E,,,290423,,*00
$GPGGA,040903.0,2437.0332,N,12420.3317,E,1,,,12.0,M,,M,,*52
$GPRMC,040903.0,A,2437.0332,N,12420.3317,E,,,290423,,*00
$GPGGA,040933.0,2437.0396,N,12420.3233,E,1,,,15.0,M,,M,,*5F
$GPRMC,040933.0,A,2437.0396,N,12420.3233,E,,,290423,,*0A
$GPGGA,041003.0,2437.0455,N,12420.3149,E,1,,,14.9,M,,M,,*5A
$GPRMC,041003.0,A,2437.0455,N,12420.3149,E,,,290423,,*07
$GPGGA,041033.0,2437.0516,N,12420.3065,E,1,,,13.9,M,,M,,*57
$GPRMC,041033.0,A,2437.0516,N,12420.3065,E,,,290423,,*0D
$GPGGA,041103.0,2437.0582,N,12420.2980,E,1,,,13.8,M,,M,,*5A
$GPRMC,041103.0,A,2437.0582,N,12420.2980,E,,,290423,,*01
$GPGGA,041133.0,2437.0650,N,12420.2897,E,1,,,13.6,M,,M,,*5C
$GPRMC,041133.0,A,2437.0650,N,12420.2897,E,,,290423,,*09
$GPGGA,041203.0,2437.0715,N,12420.2819,E,1,,,14.5,M,,M,,*5E
$GPRMC,041203.0,A,2437.0715,N,12420.2819,E,,,290423,,*0F
$GPGGA,041233.0,2437.0777,N,12420.2740,E,1,,,14.6,M,,M,,*59
$GPRMC,041233.0,A,2437.0777,N,12420.2740,E,,,290423,,*0B
$GPGGA,041303.0,2437.0843,N,12420.2668,E,1,,,15.4,M,,M,,*5B
$GPRMC,041303.0,A,2437.0843,N,12420.2668,E,,,290423,,*0A
$GPGGA,041333.0,2437.0905,N,12420.2581,E,1,,,17.1,M,,M,,*58
$GPRMC,041333.0,A,2437.0905,N,12420.2581,E,,,290423,,*0E
$GPGGA,041403.0,2437.0972,N,12420.2497,E,1,,,17.1,M,,M,,*5A
$GPRMC,041403.0,A,2437.0972,N,12420.2497,E,,,290423,,*0C
$GPGGA,041433.0,2437.1040,N,12420.2420,E,1,,,18.0,M,,M,,*52
$GPRMC,041433.0,A,2437.1040,N,12420.2420,E,,,290423,,*0A
$GPGGA,041503.0,2437.1111,N,12420.2346,E,1,,,17.5,M,,M,,*58
$GPRMC,041503.0,A,2437.1111,N,12420.2346,E,,,290423,,*0A
$GPGGA,041533.0,2437.1184,N,12420.2268,E,1,,,16.8,M,,M,,*56
$GPRMC,041533.0,A,2437.1184,N,12420.2268,E,,,290423,,*08
$GPGGA,041603.0,2437.1253,N,12420.2192,E,1,,,15.9,M,,M,,*5B
$GPRMC,041603.0,A,2437.1253,N,12420.2192,E,,,290423,,*07
$GPGGA,041633.0,2437.1326,N,12420.2111,E,1,,,15.5,M,,M,,*5C
$GPRMC,041633.0,A,2437.1326,N,12420.2111,E,,,290423,,*0C
$GPGGA,041703.1,2437.1405,N,12420.2030,E,1,,,14.4,M,,M,,*5B
$GPRMC,041703.1,A,2437.1405,N,12420.2030,E,,,290423,,*0B
$GPGGA,041733.0,2437.1479,N,12420.1952,E,1,,,15.5,M,,M,,*5C
$GPRMC,041733.0,A,2437.1479,N,12420.1952,E,,,290423,,*0C
$GPGGA,041803.0,2437.1558,N,12420.1872,E,1,,,15.3,M,,M,,*57
$GPRMC,041803.0,A,2437.1558,N,12420.1872,E,,,290423,,*01
$GPGGA,041833.0,2437.1639,N,12420.1791,E,1,,,14.7,M,,M,,*57
$GPRMC,041833.0,A,2437.1639,N,12420.1791,E,,,290423,,*04
$GPGGA,041903.0,2437.1721,N,12420.1717,E,1,,,14.3,M,,M,,*57
$GPRMC,041903.0,A,2437.1721,N,12420.1717,E,,,290423,,*00
$GPGGA,041933.0,2437.1803,N,12420.1648,E,1,,,14.5,M,,M,,*56
$GPRMC,041933.0,A,2437.1803,N,12420.1648,E,,,290423,,*07
$GPGGA,042003.0,2437.1878,N,12420.1576,E,1,,,15.3,M,,M,,*5A
$GPRMC,042003.0,A,2437.1878,N,12420.1576,E,,,290423,,*0C
$GPGGA,042033.0,2437.1954,N,12420.1506,E,1,,,15.1,M,,M,,*53
$GPRMC,042033.0,A,2437.1954,N,12420.1506,E,,,290423,,*07
$GPGGA,042103.0,2437.2029,N,12420.1434,E,1,,,15.2,M,,M,,*52
$GPRMC,042103.0,A,2437.2029,N,12420.1434,E,,,290423,,*05
$GPGGA,042133.0,2437.2107,N,12420.1361,E,1,,,14.8,M,,M,,*50
$GPRMC,042133.0,A,2437.2107,N,12420.1361,E,,,290423,,*0C
$GPGGA,042203.0,2437.2186,N,12420.1287,E,1,,,14.3,M,,M,,*5B
$GPRMC,042203.0,A,2437.2186,N,12420.1287,E,,,290423,,*0C
$GPGGA,042233.0,2437.2264,N,12420.1212,E,1,,,13.9,M,,M,,*56
$GPRMC,042233.0,A,2437.2264,N,12420.1212,E,,,290423,,*0C
$GPGGA,042303.0,2437.2344,N,12420.1140,E,1,,,13.9,M,,M,,*53
$GPRMC,042303.0,A,2437.2344,N,12420.1140,E,,,290423,,*09
$GPGGA,042333.0,2437.2421,N,12420.1055,E,1,,,13.7,M,,M,,*5F
$GPRMC,042333.0,A,2437.2421,N,12420.1055,E,,,290423,,*0B
$GPGGA,042403.0,2437.2398,N,12420.0571,E,1,,,13.2,M,,M,,*59
$GPRMC,042403.0,A,2437.2398,N,12420.0571,E,,,290423,,*08
$GPGGA,042433.0,2437.2399,N,12420.0013,E,1,,,12.7,M,,M,,*5E
$GPRMC,042433.0,A,2437.2399,N,12420.0013,E,,,290423,,*0B
$GPGGA,042503.0,2437.2422,N,12419.9490,E,1,,,14.4,M,,M,,*52
$GPRMC,042503.0,A,2437.2422,N,12419.9490,E,,,290423,,*02
$GPGGA,042533.0,2437.2459,N,12419.8965,E,1,,,14.0,M,,M,,*5F
$GPRMC,042533.0,A,2437.2459,N,12419.8965,E,,,290423,,*0B
$GPGGA,042603.0,2437.2528,N,12419.8451,E,1,,,13.2,M,,M,,*57
$GPRMC,042603.0,A,2437.2528,N,12419.8451,E,,,290423,,*06
$GPGGA,042633.0,2437.2553,N,12419.7947,E,1,,,13.0,M,,M,,*5F
$GPRMC,042633.0,A,2437.2553,N,12419.7947,E,,,290423,,*0C
$GPGGA,042703.0,2437.2509,N,12419.7453,E,1,,,13.6,M,,M,,*5C
$GPRMC,042703.0,A,2437.2509,N,12419.7453,E,,,290423,,*09
$GPGGA,042733.0,2437.2483,N,12419.6964,E,1,,,13.9,M,,M,,*5B
$GPRMC,042733.0,A,2437.2483,N,12419.6964,E,,,290423,,*01
$GPGGA,042803.0,2437.2421,N,12419.6518,E,1,,,14.1,M,,M,,*57
$GPRMC,042803.0,A,2437.2421,N,12419.6518,E,,,290423,,*02
$GPGGA,042833.0,2437.2311,N,12419.6363,E,1,,,14.7,M,,M,,*5C
$GPRMC,042833.0,A,2437.2311,N,12419.6363,E,,,290423,,*0F
$GPGGA,042933.4,2437.2607,N,12419.6234,E,1,,,14.8,M,,M,,*57
$GPRMC,042933.4,A,2437.2607,N,12419.6234,E,,,290423,,*0B
$GPGGA,043003.0,2437.2164,N,12419.6235,E,1,,,-63.8,M,,M,,*76
$GPRMC,043003.0,A,2437.2164,N,12419.6235,E,,,290423,,*07
$GPGGA,043033.0,2437.2111,N,12419.5973,E,1,,,12.6,M,,M,,*58
$GPRMC,043033.0,A,2437.2111,N,12419.5973,E,,,290423,,*0C
$GPGGA,043103.0,2437.2151,N,12419.5886,E,1,,,10.8,M,,M,,*59
$GPRMC,043103.0,A,2437.2151,N,12419.5886,E,,,290423,,*01
$GPGGA,043133.0,2437.2219,N,12419.5845,E,1,,,8.1,M,,M,,*6A
$GPRMC,043133.0,A,2437.2219,N,12419.5845,E,,,290423,,*02
$GPGGA,043203.0,2437.2271,N,12419.5792,E,1,,,9.5,M,,M,,*64
$GPRMC,043203.0,A,2437.2271,N,12419.5792,E,,,290423,,*09
$GPGGA,043233.0,2437.2321,N,12419.5743,E,1,,,10.5,M,,M,,*57
$GPRMC,043233.0,A,2437.2321,N,12419.5743,E,,,290423,,*02
$GPGGA,043303.0,2437.2401,N,12419.5809,E,1,,,10.4,M,,M,,*50
$GPRMC,043303.0,A,2437.2401,N,12419.5809,E,,,290423,,*04
$GPGGA,043333.0,2437.2432,N,12419.5879,E,1,,,10.7,M,,M,,*57
$GPRMC,043333.0,A,2437.2432,N,12419.5879,E,,,290423,,*00
$GPGGA,043403.0,2437.2495,N,12419.5863,E,1,,,10.7,M,,M,,*55
$GPRMC,043403.0,A,2437.2495,N,12419.5863,E,,,290423,,*02
$GPGGA,043433.0,2437.2556,N,12419.5830,E,1,,,10.2,M,,M,,*5B
$GPRMC,043433.0,A,2437.2556,N,12419.5830,E,,,290423,,*09
$GPGGA,043503.0,2437.2440,N,12419.5746,E,1,,,10.1,M,,M,,*52
