@Olympus/+0900/+0900
$GPGGA,092813.3,2420.0703,N,12409.6179,E,1,,,7.6,M,,M,,*68
$GPRMC,092813.3,A,2420.0703,N,12409.6179,E,,,010523,,*03
$GPGGA,092843.0,2420.0264,N,12409.5776,E,1,,,49.8,M,,M,,*54
$GPRMC,092843.0,A,2420.0264,N,12409.5776,E,,,010523,,*0B
$GPGGA,092913.0,2420.0311,N,12409.5803,E,1,,,41.0,M,,M,,*5E
$GPRMC,092913.0,A,2420.0311,N,12409.5803,E,,,010523,,*01
$GPGGA,092943.0,2420.0329,N,12409.5849,E,1,,,35.9,M,,M,,*54
$GPRMC,092943.0,A,2420.0329,N,12409.5849,E,,,010523,,*01
$GPGGA,093013.0,2420.0348,N,12409.5863,E,1,,,33.4,M,,M,,*5D
$GPRMC,093013.0,A,2420.0348,N,12409.5863,E,,,010523,,*03
$GPGGA,093043.0,2420.0349,N,12409.5863,E,1,,,36.2,M,,M,,*5A
$GPRMC,093043.0,A,2420.0349,N,12409.5863,E,,,010523,,*07
$GPGGA,093113.0,2420.0349,N,12409.5863,E,1,,,37.1,M,,M,,*5C
$GPRMC,093113.0,A,2420.0349,N,12409.5863,E,,,010523,,*03
$GPGGA,093143.0,2420.0349,N,12409.5863,E,1,,,37.1,M,,M,,*59
$GPRMC,093143.0,A,2420.0349,N,12409.5863,E,,,010523,,*06
$GPGGA,093213.0,2420.0348,N,12409.5863,E,1,,,37.7,M,,M,,*58
$GPRMC,093213.0,A,2420.0348,N,12409.5863,E,,,010523,,*01
$GPGGA,093243.0,2420.0349,N,12409.5863,E,1,,,37.6,M,,M,,*5D
$GPRMC,093243.0,A,2420.0349,N,12409.5863,E,,,010523,,*05
$GPGGA,093313.0,2420.0352,N,12409.5862,E,1,,,37.9,M,,M,,*5D
$GPRMC,093313.0,A,2420.0352,N,12409.5862,E,,,010523,,*0A
$GPGGA,093343.0,2420.0346,N,12409.5871,E,1,,,39.9,M,,M,,*51
$GPRMC,093343.0,A,2420.0346,N,12409.5871,E,,,010523,,*08
$GPGGA,093413.0,2420.0346,N,12409.5875,E,1,,,38.5,M,,M,,*5A
$GPRMC,093413.0,A,2420.0346,N,12409.5875,E,,,010523,,*0E
$GPGGA,093443.0,2420.0346,N,12409.5875,E,1,,,33.5,M,,M,,*54
$GPRMC,093443.0,A,2420.0346,N,12409.5875,E,,,010523,,*0B
$GPGGA,093513.0,2420.0344,N,12409.5875,E,1,,,31.8,M,,M,,*5D
$GPRMC,093513.0,A,2420.0344,N,12409.5875,E,,,010523,,*0D
$GPGGA,093543.0,2420.0344,N,12409.5876,E,1,,,32.9,M,,M,,*59
$GPRMC,093543.0,A,2420.0344,N,12409.5876,E,,,010523,,*0B
$GPGGA,093613.0,2420.0344,N,12409.5877,E,1,,,32.4,M,,M,,*53
$GPRMC,093613.0,A,2420.0344,N,12409.5877,E,,,010523,,*0C
$GPGGA,093643.0,2420.0345,N,12409.5877,E,1,,,32.3,M,,M,,*50
$GPRMC,093643.0,A,2420.0345,N,12409.5877,E,,,010523,,*08
$GPGGA,093713.0,2420.0345,N,12409.5877,E,1,,,31.9,M,,M,,*5D
$GPRMC,093713.0,A,2420.0345,N,12409.5877,E,,,010523,,*0C
$GPGGA,093743.0,2420.0344,N,12409.5876,E,1,,,33.3,M,,M,,*50
$GPRMC,093743.0,A,2420.0344,N,12409.5876,E,,,010523,,*09
$GPGGA,093813.0,2420.0344,N,12409.5876,E,1,,,35.1,M,,M,,*5E
$GPRMC,093813.0,A,2420.0344,N,12409.5876,E,,,010523,,*03
$GPGGA,093843.0,2420.0343,N,12409.5876,E,1,,,35.8,M,,M,,*55
$GPRMC,093843.0,A,2420.0343,N,12409.5876,E,,,010523,,*01
$GPGGA,093913.0,2420.0343,N,12409.5876,E,1,,,36.1,M,,M,,*5B
$GPRMC,093913.0,A,2420.0343,N,12409.5876,E,,,010523,,*05
$GPGGA,093943.0,2420.0344,N,12409.5876,E,1,,,36.0,M,,M,,*58
$GPRMC,093943.0,A,2420.0344,N,12409.5876,E,,,010523,,*07
$GPGGA,094013.0,2420.0323,N,12409.5855,E,1,,,46.2,M,,M,,*56
$GPRMC,094013.0,A,2420.0323,N,12409.5855,E,,,010523,,*0C
$GPGGA,094043.0,2420.0323,N,12409.5855,E,1,,,44.6,M,,M,,*55
$GPRMC,094043.0,A,2420.0323,N,12409.5855,E,,,010523,,*09
$GPGGA,094113.0,2420.0324,N,12409.5855,E,1,,,42.0,M,,M,,*56
$GPRMC,094113.0,A,2420.0324,N,12409.5855,E,,,010523,,*0A
$GPGGA,094143.0,2420.0326,N,12409.5856,E,1,,,38.8,M,,M,,*57
$GPRMC,094143.0,A,2420.0326,N,12409.5856,E,,,010523,,*0E
$GPGGA,094213.0,2420.0327,N,12409.5856,E,1,,,37.4,M,,M,,*53
$GPRMC,094213.0,A,2420.0327,N,12409.5856,E,,,010523,,*09
$GPGGA,094243.0,2420.0327,N,12409.5856,E,1,,,36.9,M,,M,,*5A
$GPRMC,094243.0,A,2420.0327,N,12409.5856,E,,,010523,,*0C
$GPGGA,094313.0,2420.0328,N,12409.5857,E,1,,,36.6,M,,M,,*5F
$GPRMC,094313.0,A,2420.0328,N,12409.5857,E,,,010523,,*06
$GPGGA,094343.0,2420.0329,N,12409.5857,E,1,,,36.1,M,,M,,*5C
$GPRMC,094343.0,A,2420.0329,N,12409.5857,E,,,010523,,*02
$GPGGA,094413.0,2420.0330,N,12409.5858,E,1,,,37.4,M,,M,,*5D
$GPRMC,094413.0,A,2420.0330,N,12409.5858,E,,,010523,,*07
$GPGGA,094443.0,2420.0331,N,12409.5859,E,1,,,37.1,M,,M,,*5D
$GPRMC,094443.0,A,2420.0331,N,12409.5859,E,,,010523,,*02
$GPGGA,094513.0,2420.0330,N,12409.5855,E,1,,,39.1,M,,M,,*5A
$GPRMC,094513.0,A,2420.0330,N,12409.5855,E,,,010523,,*0B
$GPGGA,094543.0,2420.0331,N,12409.5856,E,1,,,38.6,M,,M,,*5B
$GPRMC,094543.0,A,2420.0331,N,12409.5856,E,,,010523,,*0C
$GPGGA,094613.0,2420.0331,N,12409.5857,E,1,,,38.3,M,,M,,*59
$GPRMC,094613.0,A,2420.0331,N,12409.5857,E,,,010523,,*0B
$GPGGA,094643.0,2420.0321,N,12409.5855,E,1,,,41.9,M,,M,,*5B
$GPRMC,094643.0,A,2420.0321,N,12409.5855,E,,,010523,,*0D
$GPGGA,094713.0,2420.0322,N,12409.5855,E,1,,,41.6,M,,M,,*53
$GPRMC,094713.0,A,2420.0322,N,12409.5855,E,,,010523,,*0A
$GPGGA,094743.0,2420.0354,N,12409.5873,E,1,,,52.4,M,,M,,*53
$GPRMC,094743.0,A,2420.0354,N,12409.5873,E,,,010523,,*0A
$GPGGA,094813.0,2420.0350,N,12409.5871,E,1,,,59.3,M,,M,,*53
$GPRMC,094813.0,A,2420.0350,N,12409.5871,E,,,010523,,*06
$GPGGA,094843.0,2420.0348,N,12409.5872,E,1,,,61.0,M,,M,,*54
$GPRMC,094843.0,A,2420.0348,N,12409.5872,E,,,010523,,*09
$GPGGA,094913.0,2420.0342,N,12409.5862,E,1,,,60.7,M,,M,,*5D
$GPRMC,094913.0,A,2420.0342,N,12409.5862,E,,,010523,,*06
$GPGGA,094943.0,2420.0365,N,12409.5877,E,1,,,55.9,M,,M,,*51
$GPRMC,094943.0,A,2420.0365,N,12409.5877,E,,,010523,,*02
$GPGGA,095013.0,2420.0365,N,12409.5877,E,1,,,51.3,M,,M,,*52
$GPRMC,095013.0,A,2420.0365,N,12409.5877,E,,,010523,,*0F
$GPGGA,095043.0,2420.0365,N,12409.5877,E,1,,,48.1,M,,M,,*5D
$GPRMC,095043.0,A,2420.0365,N,12409.5877,E,,,010523,,*0A
$GPGGA,095113.0,2420.0365,N,12409.5877,E,1,,,47.8,M,,M,,*5F
$GPRMC,095113.0,A,2420.0365,N,12409.5877,E,,,010523,,*0E
$GPGGA,095143.0,2420.0364,N,12409.5877,E,1,,,48.0,M,,M,,*5C
$GPRMC,095143.0,A,2420.0364,N,12409.5877,E,,,010523,,*0A
$GPGGA,095213.0,2420.0364,N,12409.5878,E,1,,,43.9,M,,M,,*57
$GPRMC,095213.0,A,2420.0364,N,12409.5878,E,,,010523,,*03
$GPGGA,095243.0,2420.0364,N,12409.5880,E,1,,,41.9,M,,M,,*57
$GPRMC,095243.0,A,2420.0364,N,12409.5880,E,,,010523,,*01
$GPGGA,095313.0,2420.0362,N,12409.5880,E,1,,,43.2,M,,M,,*5C
$GPRMC,095313.0,A,2420.0362,N,12409.5880,E,,,010523,,*03
$GPGGA,095343.0,2420.0361,N,12409.5888,E,1,,,41.4,M,,M,,*56
$GPRMC,095343.0,A,2420.0361,N,12409.5888,E,,,010523,,*0D
$GPGGA,095413.0,2420.0362,N,12409.5888,E,1,,,40.2,M,,M,,*50
$GPRMC,095413.0,A,2420.0362,N,12409.5888,E,,,010523,,*0C
$GPGGA,095443.0,2420.0362,N,12409.5889,E,1,,,39.3,M,,M,,*5B
$GPRMC,095443.0,A,2420.0362,N,12409.5889,E,,,010523,,*08
$GPGGA,095513.0,2420.0362,N,12409.5898,E,1,,,38.4,M,,M,,*59
$GPRMC,095513.0,A,2420.0362,N,12409.5898,E,,,010523,,*0C
$GPGGA,095543.0,2420.0362,N,12409.5898,E,1,,,37.7,M,,M,,*50
$GPRMC,095543.0,A,2420.0362,N,12409.5898,E,,,010523,,*09
$GPGGA,095613.0,2420.0365,N,12409.5901,E,1,,,34.5,M,,M,,*51
$GPRMC,095613.0,A,2420.0365,N,12409.5901,E,,,010523,,*09
$GPGGA,095643.0,2420.0365,N,12409.5901,E,1,,,33.9,M,,M,,*5F
$GPRMC,095643.0,A,2420.0365,N,12409.5901,E,,,010523,,*0C
$GPGGA,095713.0,2420.0366,N,12409.5901,E,1,,,32.4,M,,M,,*54
$GPRMC,095713.0,A,2420.0366,N,12409.5901,E,,,010523,,*0B
$GPGGA,095743.0,2420.0366,N,12409.5901,E,1,,,32.2,M,,M,,*57
$GPRMC,095743.0,A,2420.0366,N,12409.5901,E,,,010523,,*0E
$GPGGA,095813.0,2420.0366,N,12409.5901,E,1,,,32.0,M,,M,,*5F
$GPRMC,095813.0,A,2420.0366,N,12409.5901,E,,,010523,,*04
$GPGGA,095843.0,2420.0366,N,12409.5902,E,1,,,31.6,M,,M,,*5C
$GPRMC,095843.0,A,2420.0366,N,12409.5902,E,,,010523,,*02
$GPGGA,095913.0,2420.0366,N,12409.5902,E,1,,,31.4,M,,M,,*5A
$GPRMC,095913.0,A,2420.0366,N,12409.5902,E,,,010523,,*06
$GPGGA,095943.0,2420.0366,N,12409.5901,E,1,,,31.4,M,,M,,*5C
$GPRMC,095943.0,A,2420.0366,N,12409.5901,E,,,010523,,*00
$GPGGA,100013.0,2420.0366,N,12409.5901,E,1,,,31.4,M,,M,,*5D
$GPRMC,100013.0,A,2420.0366,N,12409.5901,E,,,010523,,*01
$GPGGA,100043.0,2420.0366,N,12409.5901,E,1,,,31.4,M,,M,,*58
$GPRMC,100043.0,A,2420.0366,N,12409.5901,E,,,010523,,*04
$GPGGA,100113.0,2420.0366,N,12409.5901,E,1,,,31.5,M,,M,,*5D
$GPRMC,100113.0,A,2420.0366,N,12409.5901,E,,,010523,,*00
$GPGGA,100143.0,2420.0362,N,12409.5894,E,1,,,34.7,M,,M,,*56
$GPRMC,100143.0,A,2420.0362,N,12409.5894,E,,,010523,,*0C
$GPGGA,100213.0,2420.0361,N,12409.5894,E,1,,,34.9,M,,M,,*5D
$GPRMC,100213.0,A,2420.0361,N,12409.5894,E,,,010523,,*09
$GPGGA,100243.0,2420.0358,N,12409.5891,E,1,,,36.5,M,,M,,*59
$GPRMC,100243.0,A,2420.0358,N,12409.5891,E,,,010523,,*03
$GPGGA,100313.0,2420.0367,N,12409.5901,E,1,,,37.4,M,,M,,*59
$GPRMC,100313.0,A,2420.0367,N,12409.5901,E,,,010523,,*03
$GPGGA,100343.0,2420.0361,N,12409.5894,E,1,,,45.9,M,,M,,*5F
$GPRMC,100343.0,A,2420.0361,N,12409.5894,E,,,010523,,*0D
$GPGGA,100413.0,2420.0361,N,12409.5893,E,1,,,48.2,M,,M,,*5C
$GPRMC,100413.0,A,2420.0361,N,12409.5893,E,,,010523,,*08
$GPGGA,100443.0,2420.0361,N,12409.5893,E,1,,,48.0,M,,M,,*5B
$GPRMC,100443.0,A,2420.0361,N,12409.5893,E,,,010523,,*0D
$GPGGA,100513.0,2420.0360,N,12409.5882,E,1,,,48.2,M,,M,,*5C
$GPRMC,100513.0,A,2420.0360,N,12409.5882,E,,,010523,,*08
$GPGGA,100543.0,2420.0361,N,12409.5882,E,1,,,47.8,M,,M,,*5D
$GPRMC,100543.0,A,2420.0361,N,12409.5882,E,,,010523,,*0C
$GPGGA,100613.0,2420.0361,N,12409.5882,E,1,,,47.4,M,,M,,*57
$GPRMC,100613.0,A,2420.0361,N,12409.5882,E,,,010523,,*0A
$GPGGA,100643.0,2420.0361,N,12409.5882,E,1,,,45.6,M,,M,,*52
$GPRMC,100643.0,A,2420.0361,N,12409.5882,E,,,010523,,*0F
$GPGGA,100713.0,2420.0361,N,12409.5883,E,1,,,43.7,M,,M,,*50
$GPRMC,100713.0,A,2420.0361,N,12409.5883,E,,,010523,,*0A
$GPGGA,100743.0,2420.0375,N,12409.5887,E,1,,,33.0,M,,M,,*54
$GPRMC,100743.0,A,2420.0375,N,12409.5887,E,,,010523,,*0E
$GPGGA,100813.0,2420.0374,N,12409.5888,E,1,,,32.4,M,,M,,*55
$GPRMC,100813.0,A,2420.0374,N,12409.5888,E,,,010523,,*0A
$GPGGA,100843.0,2420.0378,N,12409.5888,E,1,,,29.9,M,,M,,*5B
$GPRMC,100843.0,A,2420.0378,N,12409.5888,E,,,010523,,*03
$GPGGA,100913.0,2420.0378,N,12409.5888,E,1,,,30.8,M,,M,,*56
$GPRMC,100913.0,A,2420.0378,N,12409.5888,E,,,010523,,*07
$GPGGA,100943.0,2420.0379,N,12409.5889,E,1,,,30.5,M,,M,,*5E
$GPRMC,100943.0,A,2420.0379,N,12409.5889,E,,,010523,,*02
$GPGGA,101013.0,2420.0371,N,12409.5896,E,1,,,32.4,M,,M,,*56
$GPRMC,101013.0,A,2420.0371,N,12409.5896,E,,,010523,,*09
$GPGGA,101043.0,2420.0360,N,12409.5898,E,1,,,30.9,M,,M,,*52
$GPRMC,101043.0,A,2420.0360,N,12409.5898,E,,,010523,,*02
$GPGGA,101113.0,2420.0364,N,12409.5902,E,1,,,26.0,M,,M,,*5E
$GPRMC,101113.0,A,2420.0364,N,12409.5902,E,,,010523,,*00
$GPGGA,101143.0,2420.0364,N,12409.5901,E,1,,,29.0,M,,M,,*57
$GPRMC,101143.0,A,2420.0364,N,12409.5901,E,,,010523,,*06
$GPGGA,101213.0,2420.0364,N,12409.5903,E,1,,,29.2,M,,M,,*51
$GPRMC,101213.0,A,2420.0364,N,12409.5903,E,,,010523,,*02
$GPGGA,101243.0,2420.0369,N,12409.5892,E,1,,,30.7,M,,M,,*5D
$GPRMC,101243.0,A,2420.0369,N,12409.5892,E,,,010523,,*03
$GPGGA,101313.0,2420.0368,N,12409.5892,E,1,,,32.9,M,,M,,*54
$GPRMC,101313.0,A,2420.0368,N,12409.5892,E,,,010523,,*06
$GPGGA,101343.0,2420.0370,N,12409.5890,E,1,,,33.0,M,,M,,*52
$GPRMC,101343.0,A,2420.0370,N,12409.5890,E,,,010523,,*08
$GPGGA,101413.0,2420.0370,N,12409.5890,E,1,,,32.6,M,,M,,*57
$GPRMC,101413.0,A,2420.0370,N,12409.5890,E,,,010523,,*0A
$GPGGA,101443.0,2420.0369,N,12409.5890,E,1,,,32.1,M,,M,,*5D
$GPRMC,101443.0,A,2420.0369,N,12409.5890,E,,,010523,,*07
$GPGGA,101513.0,2420.0370,N,12409.5890,E,1,,,31.2,M,,M,,*51
$GPRMC,101513.0,A,2420.0370,N,12409.5890,E,,,010523,,*0B
$GPGGA,101543.0,2420.0370,N,12409.5890,E,1,,,29.7,M,,M,,*58
$GPRMC,101543.0,A,2420.0370,N,12409.5890,E,,,010523,,*0E
$GPGGA,101613.0,2420.0364,N,12409.5895,E,1,,,29.9,M,,M,,*50
$GPRMC,101613.0,A,2420.0364,N,12409.5895,E,,,010523,,*08
$GPGGA,101643.0,2420.0377,N,12409.5889,E,1,,,20.2,M,,M,,*58
$GPRMC,101643.0,A,2420.0377,N,12409.5889,E,,,010523,,*02
$GPGGA,101713.0,2420.0377,N,12409.5889,E,1,,,21.2,M,,M,,*5D
$GPRMC,101713.0,A,2420.0377,N,12409.5889,E,,,010523,,*06
$GPGGA,101743.0,2420.0388,N,12409.5898,E,1,,,22.7,M,,M,,*5E
$GPRMC,101743.0,A,2420.0388,N,12409.5898,E,,,010523,,*03
$GPGGA,101813.0,2420.0387,N,12409.5898,E,1,,,24.0,M,,M,,*5A
$GPRMC,101813.0,A,2420.0387,N,12409.5898,E,,,010523,,*06
$GPGGA,101843.0,2420.0386,N,12409.5899,E,1,,,23.5,M,,M,,*5D
$GPRMC,101843.0,A,2420.0386,N,12409.5899,E,,,010523,,*03
$GPGGA,101913.0,2420.0367,N,12409.5913,E,1,,,23.2,M,,M,,*52
$GPRMC,101913.0,A,2420.0367,N,12409.5913,E,,,010523,,*0B
$GPGGA,101943.0,2420.0366,N,12409.5913,E,1,,,25.1,M,,M,,*53
$GPRMC,101943.0,A,2420.0366,N,12409.5913,E,,,010523,,*0F
$GPGGA,102013.0,2420.0366,N,12409.5913,E,1,,,25.1,M,,M,,*5C
$GPRMC,102013.0,A,2420.0366,N,12409.5913,E,,,010523,,*00
$GPGGA,102043.0,2420.0365,N,12409.5917,E,1,,,23.3,M,,M,,*5A
$GPRMC,102043.0,A,2420.0365,N,12409.5917,E,,,010523,,*02
$GPGGA,102113.0,2420.0365,N,12409.5917,E,1,,,23.6,M,,M,,*5B
$GPRMC,102113.0,A,2420.0365,N,12409.5917,E,,,010523,,*06
$GPGGA,102143.0,2420.0366,N,12409.5920,E,1,,,25.7,M,,M,,*5E
$GPRMC,102143.0,A,2420.0366,N,12409.5920,E,,,010523,,*04
$GPGGA,102213.0,2420.0366,N,12409.5919,E,1,,,24.9,M,,M,,*5D
$GPRMC,102213.0,A,2420.0366,N,12409.5919,E,,,010523,,*08
$GPGGA,102243.0,2420.0367,N,12409.5919,E,1,,,25.2,M,,M,,*53
$GPRMC,102243.0,A,2420.0367,N,12409.5919,E,,,010523,,*0C
$GPGGA,102313.0,2420.0373,N,12409.5916,E,1,,,22.8,M,,M,,*50
$GPRMC,102313.0,A,2420.0373,N,12409.5916,E,,,010523,,*02
$GPGGA,102343.0,2420.0387,N,12409.5900,E,1,,,21.7,M,,M,,*55
$GPRMC,102343.0,A,2420.0387,N,12409.5900,E,,,010523,,*0B
$GPGGA,102413.0,2420.0386,N,12409.5901,E,1,,,19.4,M,,M,,*5F
$GPRMC,102413.0,A,2420.0386,N,12409.5901,E,,,010523,,*09
$GPGGA,102443.0,2420.0385,N,12409.5900,E,1,,,20.0,M,,M,,*56
$GPRMC,102443.0,A,2420.0385,N,12409.5900,E,,,010523,,*0E
$GPGGA,102513.0,2420.0384,N,12409.5900,E,1,,,21.6,M,,M,,*54
$GPRMC,102513.0,A,2420.0384,N,12409.5900,E,,,010523,,*0B
$GPGGA,102543.0,2420.0384,N,12409.5899,E,1,,,22.9,M,,M,,*5C
$GPRMC,102543.0,A,2420.0384,N,12409.5899,E,,,010523,,*0F
$GPGGA,102613.0,2420.0383,N,12409.5899,E,1,,,22.8,M,,M,,*5C
$GPRMC,102613.0,A,2420.0383,N,12409.5899,E,,,010523,,*0E
$GPGGA,102643.0,2420.0383,N,12409.5900,E,1,,,22.0,M,,M,,*50
$GPRMC,102643.0,A,2420.0383,N,12409.5900,E,,,010523,,*0A
$GPGGA,102713.0,2420.0382,N,12409.5900,E,1,,,22.2,M,,M,,*57
$GPRMC,102713.0,A,2420.0382,N,12409.5900,E,,,010523,,*0F
$GPGGA,102743.0,2420.0381,N,12409.5900,E,1,,,22.2,M,,M,,*51
$GPRMC,102743.0,A,2420.0381,N,12409.5900,E,,,010523,,*09
$GPGGA,102813.0,2420.0381,N,12409.5900,E,1,,,22.6,M,,M,,*5F
$GPRMC,102813.0,A,2420.0381,N,12409.5900,E,,,010523,,*03
$GPGGA,102843.0,2420.0381,N,12409.5899,E,1,,,23.8,M,,M,,*54
$GPRMC,102843.0,A,2420.0381,N,12409.5899,E,,,010523,,*07
$GPGGA,102913.0,2420.0339,N,12409.5874,E,1,,,35.2,M,,M,,*5D
$GPRMC,102913.0,A,2420.0339,N,12409.5874,E,,,010523,,*03
$GPGGA,102943.0,2420.0340,N,12409.5874,E,1,,,37.7,M,,M,,*51
$GPRMC,102943.0,A,2420.0340,N,12409.5874,E,,,010523,,*08
$GPGGA,103013.2,2420.0369,N,12409.5848,E,1,,,32.1,M,,M,,*59
$GPRMC,103013.2,A,2420.0369,N,12409.5848,E,,,010523,,*03
$GPGGA,103043.0,2420.0370,N,12409.5848,E,1,,,30.8,M,,M,,*5D
$GPRMC,103043.0,A,2420.0370,N,12409.5848,E,,,010523,,*0C
$GPGGA,103113.0,2420.0370,N,12409.5849,E,1,,,32.5,M,,M,,*57
$GPRMC,103113.0,A,2420.0370,N,12409.5849,E,,,010523,,*09
$GPGGA,103143.0,2420.0370,N,12409.5850,E,1,,,33.1,M,,M,,*5F
$GPRMC,103143.0,A,2420.0370,N,12409.5850,E,,,010523,,*04
$GPGGA,103213.0,2420.0370,N,12409.5850,E,1,,,34.4,M,,M,,*5B
$GPRMC,103213.0,A,2420.0370,N,12409.5850,E,,,010523,,*02
$GPGGA,103243.0,2420.0370,N,12409.5850,E,1,,,34.5,M,,M,,*5F
$GPRMC,103243.0,A,2420.0370,N,12409.5850,E,,,010523,,*07
$GPGGA,103313.0,2420.0376,N,12409.5850,E,1,,,32.8,M,,M,,*56
$GPRMC,103313.0,A,2420.0376,N,12409.5850,E,,,010523,,*05
$GPGGA,103343.0,2420.0375,N,12409.5850,E,1,,,32.7,M,,M,,*5F
$GPRMC,103343.0,A,2420.0375,N,12409.5850,E,,,010523,,*03
$GPGGA,103413.0,2420.0375,N,12409.5850,E,1,,,33.1,M,,M,,*5A
$GPRMC,103413.0,A,2420.0375,N,12409.5850,E,,,010523,,*01
$GPGGA,103443.0,2420.0375,N,12409.5851,E,1,,,32.7,M,,M,,*59
$GPRMC,103443.0,A,2420.0375,N,12409.5851,E,,,010523,,*05
$GPGGA,103513.0,2420.0375,N,12409.5851,E,1,,,33.1,M,,M,,*5A
$GPRMC,103513.0,A,2420.0375,N,12409.5851,E,,,010523,,*01
$GPGGA,103543.0,2420.0374,N,12409.5851,E,1,,,33.3,M,,M,,*5C
$GPRMC,103543.0,A,2420.0374,N,12409.5851,E,,,010523,,*05
$GPGGA,103613.0,2420.0374,N,12409.5852,E,1,,,33.1,M,,M,,*5B
$GPRMC,103613.0,A,2420.0374,N,12409.5852,E,,,010523,,*00
$GPGGA,103643.0,2420.0374,N,12409.5852,E,1,,,33.1,M,,M,,*5E
$GPRMC,103643.0,A,2420.0374,N,12409.5852,E,,,010523,,*05
$GPGGA,103713.0,2420.0374,N,12409.5852,E,1,,,33.2,M,,M,,*59
$GPRMC,103713.0,A,2420.0374,N,12409.5852,E,,,010523,,*01
$GPGGA,103743.0,2420.0373,N,12409.5852,E,1,,,33.3,M,,M,,*5A
$GPRMC,103743.0,A,2420.0373,N,12409.5852,E,,,010523,,*03
$GPGGA,103813.0,2420.0373,N,12409.5852,E,1,,,33.1,M,,M,,*52
$GPRMC,103813.0,A,2420.0373,N,12409.5852,E,,,010523,,*09
$GPGGA,103843.0,2420.0373,N,12409.5853,E,1,,,32.6,M,,M,,*50
$GPRMC,103843.0,A,2420.0373,N,12409.5853,E,,,010523,,*0D
$GPGGA,103913.0,2420.0372,N,12409.5854,E,1,,,32.4,M,,M,,*50
$GPRMC,103913.0,A,2420.0372,N,12409.5854,E,,,010523,,*0F
$GPGGA,103943.0,2420.0366,N,12409.5868,E,1,,,31.9,M,,M,,*51
$GPRMC,103943.0,A,2420.0366,N,12409.5868,E,,,010523,,*00
$GPGGA,104013.0,2420.0366,N,12409.5868,E,1,,,30.4,M,,M,,*56
$GPRMC,104013.0,A,2420.0366,N,12409.5868,E,,,010523,,*0B
$GPGGA,104043.0,2420.0366,N,12409.5868,E,1,,,31.0,M,,M,,*56
$GPRMC,104043.0,A,2420.0366,N,12409.5868,E,,,010523,,*0E
$GPGGA,104113.0,2420.0366,N,12409.5868,E,1,,,31.2,M,,M,,*50
$GPRMC,104113.0,A,2420.0366,N,12409.5868,E,,,010523,,*0A
$GPGGA,104143.0,2420.0366,N,12409.5869,E,1,,,30.7,M,,M,,*50
$GPRMC,104143.0,A,2420.0366,N,12409.5869,E,,,010523,,*0E
$GPGGA,104213.0,2420.0366,N,12409.5868,E,1,,,31.7,M,,M,,*56
$GPRMC,104213.0,A,2420.0366,N,12409.5868,E,,,010523,,*09
$GPGGA,104243.0,2420.0366,N,12409.5868,E,1,,,32.4,M,,M,,*53
$GPRMC,104243.0,A,2420.0366,N,12409.5868,E,,,010523,,*0C
$GPGGA,104313.0,2420.0361,N,12409.5877,E,1,,,35.0,M,,M,,*5D
$GPRMC,104313.0,A,2420.0361,N,12409.5877,E,,,010523,,*01
$GPGGA,104343.0,2420.0361,N,12409.5877,E,1,,,34.8,M,,M,,*51
$GPRMC,104343.0,A,2420.0361,N,12409.5877,E,,,010523,,*04
$GPGGA,104413.0,2420.0365,N,12409.5875,E,1,,,36.1,M,,M,,*5E
$GPRMC,104413.0,A,2420.0365,N,12409.5875,E,,,010523,,*00
$GPGGA,104443.0,2420.0365,N,12409.5877,E,1,,,34.0,M,,M,,*5A
$GPRMC,104443.0,A,2420.0365,N,12409.5877,E,,,010523,,*07
$GPGGA,104513.0,2420.0363,N,12409.5871,E,1,,,35.2,M,,M,,*5D
$GPRMC,104513.0,A,2420.0363,N,12409.5871,E,,,010523,,*03
$GPGGA,104543.0,2420.0357,N,12409.5858,E,1,,,33.5,M,,M,,*55
$GPRMC,104543.0,A,2420.0357,N,12409.5858,E,,,010523,,*0A
$GPGGA,104613.0,2420.0357,N,12409.5857,E,1,,,34.3,M,,M,,*5D
$GPRMC,104613.0,A,2420.0357,N,12409.5857,E,,,010523,,*03
$GPGGA,104643.0,2420.0357,N,12409.5857,E,1,,,34.8,M,,M,,*53
$GPRMC,104643.0,A,2420.0357,N,12409.5857,E,,,010523,,*06
$GPGGA,104713.0,2420.0358,N,12409.5857,E,1,,,34.2,M,,M,,*52
$GPRMC,104713.0,A,2420.0358,N,12409.5857,E,,,010523,,*0D
$GPGGA,104743.0,2420.0358,N,12409.5857,E,1,,,33.9,M,,M,,*5B
$GPRMC,104743.0,A,2420.0358,N,12409.5857,E,,,010523,,*08
$GPGGA,104813.0,2420.0358,N,12409.5857,E,1,,,34.1,M,,M,,*5E
$GPRMC,104813.0,A,2420.0358,N,12409.5857,E,,,010523,,*02
$GPGGA,104843.0,2420.0358,N,12409.5857,E,1,,,34.1,M,,M,,*5B
$GPRMC,104843.0,A,2420.0358,N,12409.5857,E,,,010523,,*07
$GPGGA,104913.0,2420.0358,N,12409.5857,E,1,,,34.1,M,,M,,*5F
$GPRMC,104913.0,A,2420.0358,N,12409.5857,E,,,010523,,*03
$GPGGA,104943.0,2420.0359,N,12409.5857,E,1,,,34.2,M,,M,,*58
$GPRMC,104943.0,A,2420.0359,N,12409.5857,E,,,010523,,*07
$GPGGA,105013.0,2420.0358,N,12409.5857,E,1,,,34.1,M,,M,,*57
$GPRMC,105013.0,A,2420.0358,N,12409.5857,E,,,010523,,*0B
$GPGGA,105043.0,2420.0358,N,12409.5857,E,1,,,34.1,M,,M,,*52
$GPRMC,105043.0,A,2420.0358,N,12409.5857,E,,,010523,,*0E
$GPGGA,105113.0,2420.0358,N,12409.5857,E,1,,,33.4,M,,M,,*54
$GPRMC,105113.0,A,2420.0358,N,12409.5857,E,,,010523,,*0A
$GPGGA,105143.0,2420.0358,N,12409.5857,E,1,,,32.4,M,,M,,*50
$GPRMC,105143.0,A,2420.0358,N,12409.5857,E,,,010523,,*0F
$GPGGA,105213.0,2420.0358,N,12409.5857,E,1,,,32.2,M,,M,,*50
$GPRMC,105213.0,A,2420.0358,N,12409.5857,E,,,010523,,*09
$GPGGA,105243.0,2420.0358,N,12409.5857,E,1,,,32.3,M,,M,,*54
$GPRMC,105243.0,A,2420.0358,N,12409.5857,E,,,010523,,*0C
$GPGGA,105313.0,2420.0358,N,12409.5857,E,1,,,32.0,M,,M,,*53
$GPRMC,105313.0,A,2420.0358,N,12409.5857,E,,,010523,,*08
$GPGGA,105343.0,2420.0358,N,12409.5857,E,1,,,31.5,M,,M,,*50
$GPRMC,105343.0,A,2420.0358,N,12409.5857,E,,,010523,,*0D
$GPGGA,105413.0,2420.0358,N,12409.5857,E,1,,,31.3,M,,M,,*54
$GPRMC,105413.0,A,2420.0358,N,12409.5857,E,,,010523,,*0F
$GPGGA,105443.0,2420.0358,N,12409.5857,E,1,,,31.2,M,,M,,*50
$GPRMC,105443.0,A,2420.0358,N,12409.5857,E,,,010523,,*0A
$GPGGA,105513.0,2420.0358,N,12409.5858,E,1,,,30.9,M,,M,,*51
$GPRMC,105513.0,A,2420.0358,N,12409.5858,E,,,010523,,*01
$GPGGA,105543.0,2420.0358,N,12409.5858,E,1,,,29.9,M,,M,,*5C
$GPRMC,105543.0,A,2420.0358,N,12409.5858,E,,,010523,,*04
$GPGGA,105613.0,2420.0358,N,12409.5858,E,1,,,29.2,M,,M,,*51
$GPRMC,105613.0,A,2420.0358,N,12409.5858,E,,,010523,,*02
$GPGGA,105643.0,2420.0354,N,12409.5861,E,1,,,28.1,M,,M,,*50
$GPRMC,105643.0,A,2420.0354,N,12409.5861,E,,,010523,,*01
$GPGGA,105713.0,2420.0354,N,12409.5861,E,1,,,27.7,M,,M,,*5D
$GPRMC,105713.0,A,2420.0354,N,12409.5861,E,,,010523,,*05
$GPGGA,105743.0,2420.0355,N,12409.5861,E,1,,,27.3,M,,M,,*5D
$GPRMC,105743.0,A,2420.0355,N,12409.5861,E,,,010523,,*01
$GPGGA,105813.0,2420.0360,N,12409.5857,E,1,,,28.4,M,,M,,*5C
$GPRMC,105813.0,A,2420.0360,N,12409.5857,E,,,010523,,*08
$GPGGA,105843.0,2420.0361,N,12409.5857,E,1,,,28.1,M,,M,,*5D
$GPRMC,105843.0,A,2420.0361,N,12409.5857,E,,,010523,,*0C
$GPGGA,105913.0,2420.0361,N,12409.5858,E,1,,,27.3,M,,M,,*5B
$GPRMC,105913.0,A,2420.0361,N,12409.5858,E,,,010523,,*07
$GPGGA,105943.0,2420.0362,N,12409.5859,E,1,,,27.0,M,,M,,*5F
$GPRMC,105943.0,A,2420.0362,N,12409.5859,E,,,010523,,*00
$GPGGA,110013.0,2420.0362,N,12409.5864,E,1,,,25.9,M,,M,,*52
$GPRMC,110013.0,A,2420.0362,N,12409.5864,E,,,010523,,*06
$GPGGA,110043.0,2420.0381,N,12409.5884,E,1,,,20.2,M,,M,,*5A
$GPRMC,110043.0,A,2420.0381,N,12409.5884,E,,,010523,,*00
$GPGGA,110113.0,2420.0383,N,12409.5887,E,1,,,14.7,M,,M,,*5D
$GPRMC,110113.0,A,2420.0383,N,12409.5887,E,,,010523,,*05
$GPGGA,110143.0,2420.0383,N,12409.5887,E,1,,,13.6,M,,M,,*5E
$GPRMC,110143.0,A,2420.0383,N,12409.5887,E,,,010523,,*00
$GPGGA,110213.0,2420.0372,N,12409.5886,E,1,,,12.6,M,,M,,*56
$GPRMC,110213.0,A,2420.0372,N,12409.5886,E,,,010523,,*09
$GPGGA,110243.0,2420.0373,N,12409.5885,E,1,,,13.2,M,,M,,*54
$GPRMC,110243.0,A,2420.0373,N,12409.5885,E,,,010523,,*0E
$GPGGA,110313.0,2420.0374,N,12409.5884,E,1,,,14.0,M,,M,,*53
$GPRMC,110313.0,A,2420.0374,N,12409.5884,E,,,010523,,*0C
$GPGGA,110343.0,2420.0375,N,12409.5884,E,1,,,12.6,M,,M,,*57
$GPRMC,110343.0,A,2420.0375,N,12409.5884,E,,,010523,,*08
$GPGGA,110413.0,2420.0376,N,12409.5884,E,1,,,12.9,M,,M,,*59
$GPRMC,110413.0,A,2420.0376,N,12409.5884,E,,,010523,,*09
$GPGGA,110443.0,2420.0376,N,12409.5883,E,1,,,13.5,M,,M,,*56
$GPRMC,110443.0,A,2420.0376,N,12409.5883,E,,,010523,,*0B
$GPGGA,110513.0,2420.0376,N,12409.5882,E,1,,,14.5,M,,M,,*54
$GPRMC,110513.0,A,2420.0376,N,12409.5882,E,,,010523,,*0E
$GPGGA,110543.0,2420.0377,N,12409.5886,E,1,,,12.9,M,,M,,*5E
$GPRMC,110543.0,A,2420.0377,N,12409.5886,E,,,010523,,*0E
$GPGGA,110613.0,2420.0377,N,12409.5885,E,1,,,12.5,M,,M,,*57
$GPRMC,110613.0,A,2420.0377,N,12409.5885,E,,,010523,,*0B
$GPGGA,110643.0,2420.0370,N,12409.5886,E,1,,,12.3,M,,M,,*50
$GPRMC,110643.0,A,2420.0370,N,12409.5886,E,,,010523,,*0A
$GPGGA,110713.0,2420.0370,N,12409.5883,E,1,,,13.1,M,,M,,*52
$GPRMC,110713.0,A,2420.0370,N,12409.5883,E,,,010523,,*0B
$GPGGA,110743.0,2420.0387,N,12409.5892,E,1,,,8.3,M,,M,,*67
$GPRMC,110743.0,A,2420.0387,N,12409.5892,E,,,010523,,*06
$GPGGA,110813.0,2420.0386,N,12409.5891,E,1,,,9.3,M,,M,,*6E
$GPRMC,110813.0,A,2420.0386,N,12409.5891,E,,,010523,,*0E
$GPGGA,110843.0,2420.0386,N,12409.5890,E,1,,,12.5,M,,M,,*56
$GPRMC,110843.0,A,2420.0386,N,12409.5890,E,,,010523,,*0A
$GPGGA,110913.0,2420.0386,N,12409.5890,E,1,,,12.7,M,,M,,*50
$GPRMC,110913.0,A,2420.0386,N,12409.5890,E,,,010523,,*0E
$GPGGA,110943.0,2420.0390,N,12409.5883,E,1,,,14.9,M,,M,,*58
$GPRMC,110943.0,A,2420.0390,N,12409.5883,E,,,010523,,*0E
$GPGGA,111013.0,2420.0391,N,12409.5884,E,1,,,15.4,M,,M,,*5F
$GPRMC,111013.0,A,2420.0391,N,12409.5884,E,,,010523,,*05
$GPGGA,111043.0,2420.0392,N,12409.5879,E,1,,,17.4,M,,M,,*59
$GPRMC,111043.0,A,2420.0392,N,12409.5879,E,,,010523,,*01
$GPGGA,111113.0,2420.0377,N,12409.5893,E,1,,,16.8,M,,M,,*5F
$GPRMC,111113.0,A,2420.0377,N,12409.5893,E,,,010523,,*0A
$GPGGA,111143.0,2420.0375,N,12409.5891,E,1,,,20.3,M,,M,,*54
$GPRMC,111143.0,A,2420.0375,N,12409.5891,E,,,010523,,*0F
$GPGGA,111213.0,2420.0375,N,12409.5890,E,1,,,18.1,M,,M,,*5A
$GPRMC,111213.0,A,2420.0375,N,12409.5890,E,,,010523,,*08
$GPGGA,111243.0,2420.0379,N,12409.5887,E,1,,,18.6,M,,M,,*52
$GPRMC,111243.0,A,2420.0379,N,12409.5887,E,,,010523,,*07
$GPGGA,111313.0,2420.0379,N,12409.5887,E,1,,,19.5,M,,M,,*54
$GPRMC,111313.0,A,2420.0379,N,12409.5887,E,,,010523,,*03
$GPGGA,111343.0,2420.0379,N,12409.5886,E,1,,,17.9,M,,M,,*52
$GPRMC,111343.0,A,2420.0379,N,12409.5886,E,,,010523,,*07
$GPGGA,111413.0,2420.0388,N,12409.5878,E,1,,,11.4,M,,M,,*54
$GPRMC,111413.0,A,2420.0388,N,12409.5878,E,,,010523,,*0A
$GPGGA,111443.0,2420.0387,N,12409.5876,E,1,,,12.0,M,,M,,*57
$GPRMC,111443.0,A,2420.0387,N,12409.5876,E,,,010523,,*0E
$GPGGA,111513.0,2420.0387,N,12409.5876,E,1,,,14.7,M,,M,,*52
$GPRMC,111513.0,A,2420.0387,N,12409.5876,E,,,010523,,*0A
$GPGGA,111543.0,2420.0386,N,12409.5877,E,1,,,18.0,M,,M,,*5C
$GPRMC,111543.0,A,2420.0386,N,12409.5877,E,,,010523,,*0F
$GPGGA,111613.0,2420.0386,N,12409.5877,E,1,,,20.2,M,,M,,*53
$GPRMC,111613.0,A,2420.0386,N,12409.5877,E,,,010523,,*09
$GPGGA,111643.0,2420.0386,N,12409.5861,E,1,,,18.2,M,,M,,*5A
$GPRMC,111643.0,A,2420.0386,N,12409.5861,E,,,010523,,*0B
$GPGGA,111713.0,2420.0385,N,12409.5861,E,1,,,19.4,M,,M,,*5A
$GPRMC,111713.0,A,2420.0385,N,12409.5861,E,,,010523,,*0C
$GPGGA,111743.0,2420.0385,N,12409.5861,E,1,,,21.1,M,,M,,*51
$GPRMC,111743.0,A,2420.0385,N,12409.5861,E,,,010523,,*09
$GPGGA,111813.0,2420.0385,N,12409.5861,E,1,,,22.3,M,,M,,*5A
$GPRMC,111813.0,A,2420.0385,N,12409.5861,E,,,010523,,*03
$GPGGA,111843.0,2420.0385,N,12409.5862,E,1,,,22.4,M,,M,,*5B
$GPRMC,111843.0,A,2420.0385,N,12409.5862,E,,,010523,,*05
$GPGGA,111913.0,2420.0388,N,12409.5858,E,1,,,20.2,M,,M,,*5F
$GPRMC,111913.0,A,2420.0388,N,12409.5858,E,,,010523,,*05
$GPGGA,111943.0,2420.0388,N,12409.5858,E,1,,,19.2,M,,M,,*50
$GPRMC,111943.0,A,2420.0388,N,12409.5858,E,,,010523,,*00
$GPGGA,112013.0,2420.0388,N,12409.5859,E,1,,,18.6,M,,M,,*5B
$GPRMC,112013.0,A,2420.0388,N,12409.5859,E,,,010523,,*0E
$GPGGA,112043.0,2420.0397,N,12409.5856,E,1,,,17.7,M,,M,,*51
$GPRMC,112043.0,A,2420.0397,N,12409.5856,E,,,010523,,*0A
$GPGGA,112113.0,2420.0394,N,12409.5854,E,1,,,18.1,M,,M,,*5D
$GPRMC,112113.0,A,2420.0394,N,12409.5854,E,,,010523,,*0F
$GPGGA,112143.0,2420.0412,N,12409.5896,E,1,,,-1.8,M,,M,,*43
$GPRMC,112143.0,A,2420.0412,N,12409.5896,E,,,010523,,*0D
$GPGGA,112213.0,2420.0432,N,12409.5924,E,1,,,3.9,M,,M,,*61
$GPRMC,112213.0,A,2420.0432,N,12409.5924,E,,,010523,,*01
$GPGGA,112243.0,2420.0439,N,12409.5927,E,1,,,9.9,M,,M,,*66
$GPRMC,112243.0,A,2420.0439,N,12409.5927,E,,,010523,,*0C
$GPGGA,112313.0,2420.0423,N,12409.5913,E,1,,,18.9,M,,M,,*5E
$GPRMC,112313.0,A,2420.0423,N,12409.5913,E,,,010523,,*04
$GPGGA,112343.0,2420.0421,N,12409.5911,E,1,,,20.2,M,,M,,*5B
$GPRMC,112343.0,A,2420.0421,N,12409.5911,E,,,010523,,*01
$GPGGA,112413.2,2420.0421,N,12409.5910,E,1,,,19.7,M,,M,,*55
$GPRMC,112413.2,A,2420.0421,N,12409.5910,E,,,010523,,*00
$GPGGA,112443.0,2420.0421,N,12409.5911,E,1,,,18.4,M,,M,,*51
$GPRMC,112443.0,A,2420.0421,N,12409.5911,E,,,010523,,*06
$GPGGA,112513.0,2420.0430,N,12409.5909,E,1,,,14.2,M,,M,,*56
$GPRMC,112513.0,A,2420.0430,N,12409.5909,E,,,010523,,*0B
$GPGGA,112543.0,2420.0430,N,12409.5906,E,1,,,13.5,M,,M,,*5C
$GPRMC,112543.0,A,2420.0430,N,12409.5906,E,,,010523,,*01
$GPGGA,112613.0,2420.0430,N,12409.5904,E,1,,,14.2,M,,M,,*58
$GPRMC,112613.0,A,2420.0430,N,12409.5904,E,,,010523,,*05
$GPGGA,112643.0,2420.0429,N,12409.5903,E,1,,,15.2,M,,M,,*53
$GPRMC,112643.0,A,2420.0429,N,12409.5903,E,,,010523,,*0F
$GPGGA,112713.0,2420.0427,N,12409.5901,E,1,,,16.4,M,,M,,*5E
$GPRMC,112713.0,A,2420.0427,N,12409.5901,E,,,010523,,*07
$GPGGA,112743.0,2420.0424,N,12409.5900,E,1,,,19.6,M,,M,,*54
$GPRMC,112743.0,A,2420.0424,N,12409.5900,E,,,010523,,*00
$GPGGA,112813.0,2420.0421,N,12409.5900,E,1,,,21.7,M,,M,,*51
$GPRMC,112813.0,A,2420.0421,N,12409.5900,E,,,010523,,*0F
$GPGGA,112843.0,2420.0417,N,12409.5901,E,1,,,25.0,M,,M,,*53
$GPRMC,112843.0,A,2420.0417,N,12409.5901,E,,,010523,,*0E
$GPGGA,112913.0,2420.0416,N,12409.5891,E,1,,,25.8,M,,M,,*56
$GPRMC,112913.0,A,2420.0416,N,12409.5891,E,,,010523,,*03
$GPGGA,112943.0,2420.0410,N,12409.5875,E,1,,,27.8,M,,M,,*5D
$GPRMC,112943.0,A,2420.0410,N,12409.5875,E,,,010523,,*0A
$GPGGA,113013.0,2420.0407,N,12409.5876,E,1,,,28.5,M,,M,,*57
$GPRMC,113013.0,A,2420.0407,N,12409.5876,E,,,010523,,*02
$GPGGA,113043.0,2420.0404,N,12409.5878,E,1,,,28.1,M,,M,,*5B
$GPRMC,113043.0,A,2420.0404,N,12409.5878,E,,,010523,,*0A
$GPGGA,113113.0,2420.0401,N,12409.5880,E,1,,,27.4,M,,M,,*57
$GPRMC,113113.0,A,2420.0401,N,12409.5880,E,,,010523,,*0C
$GPGGA,113143.0,2420.0400,N,12409.5880,E,1,,,27.1,M,,M,,*56
$GPRMC,113143.0,A,2420.0400,N,12409.5880,E,,,010523,,*08
$GPGGA,113213.0,2420.0397,N,12409.5880,E,1,,,27.8,M,,M,,*50
$GPRMC,113213.0,A,2420.0397,N,12409.5880,E,,,010523,,*07
$GPGGA,113243.0,2420.0394,N,12409.5880,E,1,,,28.8,M,,M,,*59
$GPRMC,113243.0,A,2420.0394,N,12409.5880,E,,,010523,,*01
$GPGGA,113313.0,2420.0394,N,12409.5880,E,1,,,28.3,M,,M,,*56
$GPRMC,113313.0,A,2420.0394,N,12409.5880,E,,,010523,,*05
$GPGGA,113343.0,2420.0399,N,12409.5884,E,1,,,25.8,M,,M,,*5C
$GPRMC,113343.0,A,2420.0399,N,12409.5884,E,,,010523,,*09
$GPGGA,113413.0,2420.0395,N,12409.5889,E,1,,,28.1,M,,M,,*5B
$GPRMC,113413.0,A,2420.0395,N,12409.5889,E,,,010523,,*0A
$GPGGA,113443.0,2420.0372,N,12409.5867,E,1,,,34.2,M,,M,,*59
$GPRMC,113443.0,A,2420.0372,N,12409.5867,E,,,010523,,*06
$GPGGA,113513.0,2420.0372,N,12409.5868,E,1,,,30.8,M,,M,,*5C
$GPRMC,113513.0,A,2420.0372,N,12409.5868,E,,,010523,,*0D
$GPGGA,113543.0,2420.0372,N,12409.5868,E,1,,,30.3,M,,M,,*52
$GPRMC,113543.0,A,2420.0372,N,12409.5868,E,,,010523,,*08
$GPGGA,113613.0,2420.0370,N,12409.5871,E,1,,,30.8,M,,M,,*55
$GPRMC,113613.0,A,2420.0370,N,12409.5871,E,,,010523,,*04
$GPGGA,113643.0,2420.0370,N,12409.5871,E,1,,,30.2,M,,M,,*5A
$GPRMC,113643.0,A,2420.0370,N,12409.5871,E,,,010523,,*01
$GPGGA,113713.0,2420.0384,N,12409.5875,E,1,,,25.6,M,,M,,*51
$GPRMC,113713.0,A,2420.0384,N,12409.5875,E,,,010523,,*0A
$GPGGA,113743.0,2420.0384,N,12409.5875,E,1,,,26.1,M,,M,,*50
$GPRMC,113743.0,A,2420.0384,N,12409.5875,E,,,010523,,*0F
$GPGGA,113813.0,2420.0383,N,12409.5875,E,1,,,26.2,M,,M,,*5E
$GPRMC,113813.0,A,2420.0383,N,12409.5875,E,,,010523,,*02
$GPGGA,113843.0,2420.0376,N,12409.5867,E,1,,,29.1,M,,M,,*5E
$GPRMC,113843.0,A,2420.0376,N,12409.5867,E,,,010523,,*0E
$GPGGA,113913.0,2420.0376,N,12409.5868,E,1,,,29.3,M,,M,,*57
$GPRMC,113913.0,A,2420.0376,N,12409.5868,E,,,010523,,*05
$GPGGA,113943.0,2420.0376,N,12409.5870,E,1,,,29.6,M,,M,,*5E
$GPRMC,113943.0,A,2420.0376,N,12409.5870,E,,,010523,,*09
$GPGGA,114013.0,2420.0374,N,12409.5871,E,1,,,30.9,M,,M,,*51
$GPRMC,114013.0,A,2420.0374,N,12409.5871,E,,,010523,,*01
$GPGGA,114043.0,2420.0374,N,12409.5872,E,1,,,30.6,M,,M,,*58
$GPRMC,114043.0,A,2420.0374,N,12409.5872,E,,,010523,,*07
$GPGGA,114113.0,2420.0373,N,12409.5872,E,1,,,30.9,M,,M,,*54
$GPRMC,114113.0,A,2420.0373,N,12409.5872,E,,,010523,,*04
$GPGGA,114143.0,2420.0372,N,12409.5872,E,1,,,31.0,M,,M,,*58
$GPRMC,114143.0,A,2420.0372,N,12409.5872,E,,,010523,,*00
$GPGGA,114213.0,2420.0373,N,12409.5875,E,1,,,30.2,M,,M,,*5B
$GPRMC,114213.0,A,2420.0373,N,12409.5875,E,,,010523,,*00
$GPGGA,114243.0,2420.0372,N,12409.5875,E,1,,,31.1,M,,M,,*5D
$GPRMC,114243.0,A,2420.0372,N,12409.5875,E,,,010523,,*04
$GPGGA,114313.0,2420.0367,N,12409.5879,E,1,,,32.1,M,,M,,*52
$GPRMC,114313.0,A,2420.0367,N,12409.5879,E,,,010523,,*08
$GPGGA,114343.0,2420.0367,N,12409.5879,E,1,,,32.0,M,,M,,*56
$GPRMC,114343.0,A,2420.0367,N,12409.5879,E,,,010523,,*0D
$GPGGA,114413.0,2420.0363,N,12409.5874,E,1,,,34.2,M,,M,,*59
$GPRMC,114413.0,A,2420.0363,N,12409.5874,E,,,010523,,*06
$GPGGA,114443.0,2420.0359,N,12409.5871,E,1,,,35.8,M,,M,,*5B
$GPRMC,114443.0,A,2420.0359,N,12409.5871,E,,,010523,,*0F
$GPGGA,114513.0,2420.0359,N,12409.5871,E,1,,,35.3,M,,M,,*54
$GPRMC,114513.0,A,2420.0359,N,12409.5871,E,,,010523,,*0B
$GPGGA,114543.0,2420.0360,N,12409.5871,E,1,,,34.8,M,,M,,*51
$GPRMC,114543.0,A,2420.0360,N,12409.5871,E,,,010523,,*04
$GPGGA,114613.0,2420.0360,N,12409.5872,E,1,,,33.9,M,,M,,*52
$GPRMC,114613.0,A,2420.0360,N,12409.5872,E,,,010523,,*01
$GPGGA,114643.0,2420.0361,N,12409.5872,E,1,,,33.6,M,,M,,*59
$GPRMC,114643.0,A,2420.0361,N,12409.5872,E,,,010523,,*05
$GPGGA,114713.0,2420.0360,N,12409.5872,E,1,,,34.0,M,,M,,*5D
$GPRMC,114713.0,A,2420.0360,N,12409.5872,E,,,010523,,*00
$GPGGA,114743.0,2420.0358,N,12409.5872,E,1,,,34.3,M,,M,,*50
$GPRMC,114743.0,A,2420.0358,N,12409.5872,E,,,010523,,*0E
$GPGGA,114813.0,2420.0355,N,12409.5872,E,1,,,34.8,M,,M,,*5C
$GPRMC,114813.0,A,2420.0355,N,12409.5872,E,,,010523,,*09
$GPGGA,114843.0,2420.0352,N,12409.5872,E,1,,,35.7,M,,M,,*50
$GPRMC,114843.0,A,2420.0352,N,12409.5872,E,,,010523,,*0B
$GPGGA,114913.0,2420.0354,N,12409.5886,E,1,,,36.4,M,,M,,*59
$GPRMC,114913.0,A,2420.0354,N,12409.5886,E,,,010523,,*02
$GPGGA,114943.0,2420.0330,N,12409.5873,E,1,,,38.5,M,,M,,*5B
$GPRMC,114943.0,A,2420.0330,N,12409.5873,E,,,010523,,*0F
$GPGGA,115013.0,2420.0331,N,12409.5874,E,1,,,43.3,M,,M,,*5A
$GPRMC,115013.0,A,2420.0331,N,12409.5874,E,,,010523,,*04
$GPGGA,115043.0,2420.0330,N,12409.5874,E,1,,,44.5,M,,M,,*5F
$GPRMC,115043.0,A,2420.0330,N,12409.5874,E,,,010523,,*00
$GPGGA,115113.0,2420.0304,N,12409.5861,E,1,,,47.5,M,,M,,*5B
$GPRMC,115113.0,A,2420.0304,N,12409.5861,E,,,010523,,*07
$GPGGA,115143.0,2420.0304,N,12409.5860,E,1,,,44.1,M,,M,,*58
$GPRMC,115143.0,A,2420.0304,N,12409.5860,E,,,010523,,*03
$GPGGA,115213.0,2420.0304,N,12409.5860,E,1,,,39.3,M,,M,,*56
$GPRMC,115213.0,A,2420.0304,N,12409.5860,E,,,010523,,*05
$GPGGA,115243.0,2420.0304,N,12409.5860,E,1,,,37.7,M,,M,,*59
$GPRMC,115243.0,A,2420.0304,N,12409.5860,E,,,010523,,*00
$GPGGA,115313.0,2420.0304,N,12409.5861,E,1,,,36.8,M,,M,,*52
$GPRMC,115313.0,A,2420.0304,N,12409.5861,E,,,010523,,*05
$GPGGA,115343.0,2420.0334,N,12409.5886,E,1,,,36.3,M,,M,,*56
$GPRMC,115343.0,A,2420.0334,N,12409.5886,E,,,010523,,*0A
$GPGGA,115413.0,2420.0333,N,12409.5886,E,1,,,35.1,M,,M,,*52
$GPRMC,115413.0,A,2420.0333,N,12409.5886,E,,,010523,,*0F
$GPGGA,115443.0,2420.0333,N,12409.5885,E,1,,,34.9,M,,M,,*5D
$GPRMC,115443.0,A,2420.0333,N,12409.5885,E,,,010523,,*09
$GPGGA,115513.0,2420.0333,N,12409.5885,E,1,,,34.7,M,,M,,*57
$GPRMC,115513.0,A,2420.0333,N,12409.5885,E,,,010523,,*0D
$GPGGA,115543.0,2420.0333,N,12409.5885,E,1,,,35.3,M,,M,,*57
$GPRMC,115543.0,A,2420.0333,N,12409.5885,E,,,010523,,*08
$GPGGA,115613.0,2420.0332,N,12409.5885,E,1,,,34.9,M,,M,,*5B
$GPRMC,115613.0,A,2420.0332,N,12409.5885,E,,,010523,,*0F
$GPGGA,115643.0,2420.0332,N,12409.5885,E,1,,,35.5,M,,M,,*53
$GPRMC,115643.0,A,2420.0332,N,12409.5885,E,,,010523,,*0A
$GPGGA,115713.0,2420.0332,N,12409.5884,E,1,,,34.1,M,,M,,*53
$GPRMC,115713.0,A,2420.0332,N,12409.5884,E,,,010523,,*0F
$GPGGA,115743.0,2420.0333,N,12409.5884,E,1,,,32.7,M,,M,,*57
$GPRMC,115743.0,A,2420.0333,N,12409.5884,E,,,010523,,*0B
$GPGGA,115813.0,2420.0333,N,12409.5885,E,1,,,31.5,M,,M,,*5D
$GPRMC,115813.0,A,2420.0333,N,12409.5885,E,,,010523,,*00
$GPGGA,115843.0,2420.0333,N,12409.5884,E,1,,,29.2,M,,M,,*57
$GPRMC,115843.0,A,2420.0333,N,12409.5884,E,,,010523,,*04
$GPGGA,115913.0,2420.0334,N,12409.5885,E,1,,,27.1,M,,M,,*58
$GPRMC,115913.0,A,2420.0334,N,12409.5885,E,,,010523,,*06
$GPGGA,115943.0,2420.0335,N,12409.5884,E,1,,,24.9,M,,M,,*56
$GPRMC,115943.0,A,2420.0335,N,12409.5884,E,,,010523,,*03
$GPGGA,120013.0,2420.0335,N,12409.5883,E,1,,,23.8,M,,M,,*5D
$GPRMC,120013.0,A,2420.0335,N,12409.5883,E,,,010523,,*0E
$GPGGA,120043.0,2420.0335,N,12409.5882,E,1,,,23.4,M,,M,,*55
$GPRMC,120043.0,A,2420.0335,N,12409.5882,E,,,010523,,*0A
$GPGGA,120113.0,2420.0335,N,12409.5881,E,1,,,23.8,M,,M,,*5E
$GPRMC,120113.0,A,2420.0335,N,12409.5881,E,,,010523,,*0D
$GPGGA,120143.0,2420.0334,N,12409.5880,E,1,,,23.9,M,,M,,*5A
$GPRMC,120143.0,A,2420.0334,N,12409.5880,E,,,010523,,*08
$GPGGA,120213.0,2420.0334,N,12409.5879,E,1,,,23.6,M,,M,,*55
$GPRMC,120213.0,A,2420.0334,N,12409.5879,E,,,010523,,*08
$GPGGA,120243.0,2420.0333,N,12409.5878,E,1,,,23.8,M,,M,,*58
$GPRMC,120243.0,A,2420.0333,N,12409.5878,E,,,010523,,*0B
$GPGGA,120313.0,2420.0333,N,12409.5878,E,1,,,23.4,M,,M,,*50
$GPRMC,120313.0,A,2420.0333,N,12409.5878,E,,,010523,,*0F
$GPGGA,120343.0,2420.0333,N,12409.5878,E,1,,,22.9,M,,M,,*59
$GPRMC,120343.0,A,2420.0333,N,12409.5878,E,,,010523,,*0A
$GPGGA,120413.0,2420.0333,N,12409.5878,E,1,,,23.6,M,,M,,*55
$GPRMC,120413.0,A,2420.0333,N,12409.5878,E,,,010523,,*08
$GPGGA,120443.0,2420.0332,N,12409.5877,E,1,,,23.9,M,,M,,*51
$GPRMC,120443.0,A,2420.0332,N,12409.5877,E,,,010523,,*03
$GPGGA,120513.0,2420.0332,N,12409.5877,E,1,,,23.7,M,,M,,*5B
$GPRMC,120513.0,A,2420.0332,N,12409.5877,E,,,010523,,*07
$GPGGA,120543.0,2420.0332,N,12409.5876,E,1,,,23.5,M,,M,,*5D
$GPRMC,120543.0,A,2420.0332,N,12409.5876,E,,,010523,,*03
$GPGGA,120613.0,2420.0332,N,12409.5876,E,1,,,23.4,M,,M,,*5A
$GPRMC,120613.0,A,2420.0332,N,12409.5876,E,,,010523,,*05
$GPGGA,120643.0,2420.0333,N,12409.5876,E,1,,,22.8,M,,M,,*53
$GPRMC,120643.0,A,2420.0333,N,12409.5876,E,,,010523,,*01
$GPGGA,120713.0,2420.0333,N,12409.5876,E,1,,,22.1,M,,M,,*5E
$GPRMC,120713.0,A,2420.0333,N,12409.5876,E,,,010523,,*05
$GPGGA,120743.0,2420.0333,N,12409.5876,E,1,,,21.6,M,,M,,*5F
$GPRMC,120743.0,A,2420.0333,N,12409.5876,E,,,010523,,*00
$GPGGA,120813.0,2420.0334,N,12409.5876,E,1,,,21.4,M,,M,,*50
$GPRMC,120813.0,A,2420.0334,N,12409.5876,E,,,010523,,*0D
$GPGGA,120843.0,2420.0334,N,12409.5875,E,1,,,21.3,M,,M,,*51
$GPRMC,120843.0,A,2420.0334,N,12409.5875,E,,,010523,,*0B
$GPGGA,120913.0,2420.0343,N,12409.5878,E,1,,,23.4,M,,M,,*5D
$GPRMC,120913.0,A,2420.0343,N,12409.5878,E,,,010523,,*02
$GPGGA,120943.0,2420.0344,N,12409.5878,E,1,,,22.9,M,,M,,*53
$GPRMC,120943.0,A,2420.0344,N,12409.5878,E,,,010523,,*00
$GPGGA,121013.0,2420.0344,N,12409.5878,E,1,,,23.0,M,,M,,*56
$GPRMC,121013.0,A,2420.0344,N,12409.5878,E,,,010523,,*0D
$GPGGA,121043.0,2420.0344,N,12409.5864,E,1,,,23.8,M,,M,,*56
$GPRMC,121043.0,A,2420.0344,N,12409.5864,E,,,010523,,*05
$GPGGA,121113.0,2420.0344,N,12409.5864,E,1,,,23.4,M,,M,,*5E
$GPRMC,121113.0,A,2420.0344,N,12409.5864,E,,,010523,,*01
$GPGGA,121143.0,2420.0344,N,12409.5864,E,1,,,23.2,M,,M,,*5D
$GPRMC,121143.0,A,2420.0344,N,12409.5864,E,,,010523,,*04
$GPGGA,121213.0,2420.0344,N,12409.5863,E,1,,,23.1,M,,M,,*5F
$GPRMC,121213.0,A,2420.0344,N,12409.5863,E,,,010523,,*05
$GPGGA,121243.0,2420.0344,N,12409.5863,E,1,,,22.9,M,,M,,*53
$GPRMC,121243.0,A,2420.0344,N,12409.5863,E,,,010523,,*00
$GPGGA,121313.0,2420.0344,N,12409.5864,E,1,,,22.5,M,,M,,*5C
$GPRMC,121313.0,A,2420.0344,N,12409.5864,E,,,010523,,*03
$GPGGA,121343.0,2420.0345,N,12409.5864,E,1,,,21.7,M,,M,,*59
$GPRMC,121343.0,A,2420.0345,N,12409.5864,E,,,010523,,*07
$GPGGA,121413.0,2420.0344,N,12409.5863,E,1,,,21.5,M,,M,,*5F
$GPRMC,121413.0,A,2420.0344,N,12409.5863,E,,,010523,,*03
$GPGGA,121443.0,2420.0343,N,12409.5864,E,1,,,22.1,M,,M,,*5D
$GPRMC,121443.0,A,2420.0343,N,12409.5864,E,,,010523,,*06
$GPGGA,121513.0,2420.0342,N,12409.5873,E,1,,,23.0,M,,M,,*5E
$GPRMC,121513.0,A,2420.0342,N,12409.5873,E,,,010523,,*05
$GPGGA,121543.0,2420.0342,N,12409.5872,E,1,,,22.9,M,,M,,*52
$GPRMC,121543.0,A,2420.0342,N,12409.5872,E,,,010523,,*01
$GPGGA,121613.0,2420.0341,N,12409.5873,E,1,,,23.2,M,,M,,*5C
$GPRMC,121613.0,A,2420.0341,N,12409.5873,E,,,010523,,*05
$GPGGA,121643.0,2420.0341,N,12409.5873,E,1,,,23.4,M,,M,,*5F
$GPRMC,121643.0,A,2420.0341,N,12409.5873,E,,,010523,,*00
$GPGGA,121713.2,2420.0327,N,12409.5875,E,1,,,24.1,M,,M,,*5D
$GPRMC,121713.2,A,2420.0327,N,12409.5875,E,,,010523,,*00
$GPGGA,121743.0,2420.0366,N,12409.5878,E,1,,,21.9,M,,M,,*5F
$GPRMC,121743.0,A,2420.0366,N,12409.5878,E,,,010523,,*0F
$GPGGA,121813.0,2420.0365,N,12409.5878,E,1,,,22.6,M,,M,,*5A
$GPRMC,121813.0,A,2420.0365,N,12409.5878,E,,,010523,,*06
$GPGGA,121843.0,2420.0364,N,12409.5878,E,1,,,23.6,M,,M,,*5F
$GPRMC,121843.0,A,2420.0364,N,12409.5878,E,,,010523,,*02
$GPGGA,121913.0,2420.0361,N,12409.5881,E,1,,,27.9,M,,M,,*53
$GPRMC,121913.0,A,2420.0361,N,12409.5881,E,,,010523,,*05
$GPGGA,121943.0,2420.0360,N,12409.5881,E,1,,,27.8,M,,M,,*56
$GPRMC,121943.0,A,2420.0360,N,12409.5881,E,,,010523,,*01
$GPGGA,122013.0,2420.0361,N,12409.5881,E,1,,,26.9,M,,M,,*58
$GPRMC,122013.0,A,2420.0361,N,12409.5881,E,,,010523,,*0F
$GPGGA,122043.0,2420.0399,N,12409.5879,E,1,,,24.9,M,,M,,*5F
$GPRMC,122043.0,A,2420.0399,N,12409.5879,E,,,010523,,*0A
$GPGGA,122113.0,2420.0398,N,12409.5878,E,1,,,28.3,M,,M,,*5D
$GPRMC,122113.0,A,2420.0398,N,12409.5878,E,,,010523,,*0E
$GPGGA,122143.0,2420.0399,N,12409.5881,E,1,,,27.7,M,,M,,*54
$GPRMC,122143.0,A,2420.0399,N,12409.5881,E,,,010523,,*0C
$GPGGA,122213.0,2420.0398,N,12409.5887,E,1,,,22.9,M,,M,,*5E
$GPRMC,122213.0,A,2420.0398,N,12409.5887,E,,,010523,,*0D
$GPGGA,122243.0,2420.0397,N,12409.5887,E,1,,,21.9,M,,M,,*57
$GPRMC,122243.0,A,2420.0397,N,12409.5887,E,,,010523,,*07
$GPGGA,122313.0,2420.0397,N,12409.5887,E,1,,,22.7,M,,M,,*5E
$GPRMC,122313.0,A,2420.0397,N,12409.5887,E,,,010523,,*03
$GPGGA,122343.0,2420.0396,N,12409.5888,E,1,,,21.9,M,,M,,*58
$GPRMC,122343.0,A,2420.0396,N,12409.5888,E,,,010523,,*08
$GPGGA,122413.0,2420.0400,N,12409.5890,E,1,,,25.3,M,,M,,*55
$GPRMC,122413.0,A,2420.0400,N,12409.5890,E,,,010523,,*0B
$GPGGA,122443.0,2420.0399,N,12409.5890,E,1,,,25.6,M,,M,,*52
$GPRMC,122443.0,A,2420.0399,N,12409.5890,E,,,010523,,*09
$GPGGA,122513.0,2420.0399,N,12409.5890,E,1,,,25.0,M,,M,,*50
$GPRMC,122513.0,A,2420.0399,N,12409.5890,E,,,010523,,*0D
$GPGGA,122543.0,2420.0393,N,12409.5896,E,1,,,24.9,M,,M,,*51
$GPRMC,122543.0,A,2420.0393,N,12409.5896,E,,,010523,,*04
$GPGGA,122613.0,2420.0391,N,12409.5895,E,1,,,27.0,M,,M,,*5C
$GPRMC,122613.0,A,2420.0391,N,12409.5895,E,,,010523,,*03
$GPGGA,122643.0,2420.0389,N,12409.5894,E,1,,,29.6,M,,M,,*59
$GPRMC,122643.0,A,2420.0389,N,12409.5894,E,,,010523,,*0E
$GPGGA,122713.0,2420.0387,N,12409.5893,E,1,,,32.1,M,,M,,*59
$GPRMC,122713.0,A,2420.0387,N,12409.5893,E,,,010523,,*03
$GPGGA,122743.0,2420.0385,N,12409.5893,E,1,,,32.7,M,,M,,*58
$GPRMC,122743.0,A,2420.0385,N,12409.5893,E,,,010523,,*04
$GPGGA,122813.0,2420.0384,N,12409.5893,E,1,,,32.5,M,,M,,*51
$GPRMC,122813.0,A,2420.0384,N,12409.5893,E,,,010523,,*0F
$GPGGA,122843.0,2420.0381,N,12409.5892,E,1,,,32.0,M,,M,,*55
$GPRMC,122843.0,A,2420.0381,N,12409.5892,E,,,010523,,*0E
$GPGGA,122913.0,2420.0380,N,12409.5892,E,1,,,31.2,M,,M,,*51
$GPRMC,122913.0,A,2420.0380,N,12409.5892,E,,,010523,,*0B
$GPGGA,122943.0,2420.0379,N,12409.5891,E,1,,,30.6,M,,M,,*54
$GPRMC,122943.0,A,2420.0379,N,12409.5891,E,,,010523,,*0B
$GPGGA,123013.0,2420.0373,N,12409.5906,E,1,,,30.4,M,,M,,*5E
$GPRMC,123013.0,A,2420.0373,N,12409.5906,E,,,010523,,*03
$GPGGA,123043.0,2420.0373,N,12409.5905,E,1,,,29.4,M,,M,,*50
$GPRMC,123043.0,A,2420.0373,N,12409.5905,E,,,010523,,*05
$GPGGA,123113.0,2420.0368,N,12409.5908,E,1,,,27.0,M,,M,,*59
$GPRMC,123113.0,A,2420.0368,N,12409.5908,E,,,010523,,*06
$GPGGA,123143.0,2420.0368,N,12409.5908,E,1,,,26.4,M,,M,,*59
$GPRMC,123143.0,A,2420.0368,N,12409.5908,E,,,010523,,*03
$GPGGA,123213.0,2420.0368,N,12409.5908,E,1,,,25.6,M,,M,,*5E
$GPRMC,123213.0,A,2420.0368,N,12409.5908,E,,,010523,,*05
$GPGGA,123243.0,2420.0368,N,12409.5908,E,1,,,25.4,M,,M,,*59
$GPRMC,123243.0,A,2420.0368,N,12409.5908,E,,,010523,,*00
$GPGGA,123313.0,2420.0368,N,12409.5907,E,1,,,25.3,M,,M,,*55
$GPRMC,123313.0,A,2420.0368,N,12409.5907,E,,,010523,,*0B
$GPGGA,123343.0,2420.0367,N,12409.5907,E,1,,,25.2,M,,M,,*5E
$GPRMC,123343.0,A,2420.0367,N,12409.5907,E,,,010523,,*01
$GPGGA,123413.0,2420.0367,N,12409.5907,E,1,,,25.4,M,,M,,*5A
$GPRMC,123413.0,A,2420.0367,N,12409.5907,E,,,010523,,*03
$GPGGA,123443.0,2420.0366,N,12409.5906,E,1,,,26.0,M,,M,,*58
$GPRMC,123443.0,A,2420.0366,N,12409.5906,E,,,010523,,*06
$GPGGA,123513.0,2420.0369,N,12409.5908,E,1,,,27.6,M,,M,,*5A
$GPRMC,123513.0,A,2420.0369,N,12409.5908,E,,,010523,,*03
$GPGGA,123543.0,2420.0368,N,12409.5907,E,1,,,27.8,M,,M,,*5F
$GPRMC,123543.0,A,2420.0368,N,12409.5907,E,,,010523,,*08
$GPGGA,123613.0,2420.0367,N,12409.5906,E,1,,,28.2,M,,M,,*52
$GPRMC,123613.0,A,2420.0367,N,12409.5906,E,,,010523,,*00
$GPGGA,123643.0,2420.0367,N,12409.5906,E,1,,,28.6,M,,M,,*53
$GPRMC,123643.0,A,2420.0367,N,12409.5906,E,,,010523,,*05
$GPGGA,123713.0,2420.0366,N,12409.5905,E,1,,,29.0,M,,M,,*52
$GPRMC,123713.0,A,2420.0366,N,12409.5905,E,,,010523,,*03
$GPGGA,123743.0,2420.0366,N,12409.5905,E,1,,,29.4,M,,M,,*53
$GPRMC,123743.0,A,2420.0366,N,12409.5905,E,,,010523,,*06
$GPGGA,123813.0,2420.0365,N,12409.5904,E,1,,,29.5,M,,M,,*5A
$GPRMC,123813.0,A,2420.0365,N,12409.5904,E,,,010523,,*0E
$GPGGA,123843.0,2420.0366,N,12409.5905,E,1,,,29.5,M,,M,,*5D
$GPRMC,123843.0,A,2420.0366,N,12409.5905,E,,,010523,,*09
$GPGGA,123913.0,2420.0357,N,12409.5907,E,1,,,29.1,M,,M,,*5D
$GPRMC,123913.0,A,2420.0357,N,12409.5907,E,,,010523,,*0D
$GPGGA,123943.0,2420.0356,N,12409.5908,E,1,,,27.7,M,,M,,*5E
$GPRMC,123943.0,A,2420.0356,N,12409.5908,E,,,010523,,*06
$GPGGA,124013.0,2420.0356,N,12409.5908,E,1,,,28.3,M,,M,,*5E
$GPRMC,124013.0,A,2420.0356,N,12409.5908,E,,,010523,,*0D
$GPGGA,124043.0,2420.0356,N,12409.5908,E,1,,,28.5,M,,M,,*5D
$GPRMC,124043.0,A,2420.0356,N,12409.5908,E,,,010523,,*08
$GPGGA,124113.0,2420.0356,N,12409.5908,E,1,,,28.6,M,,M,,*5A
$GPRMC,124113.0,A,2420.0356,N,12409.5908,E,,,010523,,*0C
$GPGGA,124143.0,2420.0356,N,12409.5907,E,1,,,28.7,M,,M,,*51
$GPRMC,124143.0,A,2420.0356,N,12409.5907,E,,,010523,,*06
$GPGGA,124213.0,2420.0356,N,12409.5907,E,1,,,28.7,M,,M,,*57
$GPRMC,124213.0,A,2420.0356,N,12409.5907,E,,,010523,,*00
$GPGGA,124243.0,2420.0356,N,12409.5907,E,1,,,29.0,M,,M,,*54
$GPRMC,124243.0,A,2420.0356,N,12409.5907,E,,,010523,,*05
$GPGGA,124313.0,2420.0355,N,12409.5906,E,1,,,29.3,M,,M,,*51
$GPRMC,124313.0,A,2420.0355,N,12409.5906,E,,,010523,,*03
$GPGGA,124343.0,2420.0355,N,12409.5905,E,1,,,29.5,M,,M,,*51
$GPRMC,124343.0,A,2420.0355,N,12409.5905,E,,,010523,,*05
$GPGGA,124413.0,2420.0355,N,12409.5905,E,1,,,29.7,M,,M,,*51
$GPRMC,124413.0,A,2420.0355,N,12409.5905,E,,,010523,,*07
$GPGGA,124443.0,2420.0362,N,12409.5913,E,1,,,29.6,M,,M,,*56
$GPRMC,124443.0,A,2420.0362,N,12409.5913,E,,,010523,,*01
$GPGGA,124513.0,2420.0362,N,12409.5912,E,1,,,29.8,M,,M,,*5D
$GPRMC,124513.0,A,2420.0362,N,12409.5912,E,,,010523,,*04
$GPGGA,124543.0,2420.0362,N,12409.5911,E,1,,,29.9,M,,M,,*5A
$GPRMC,124543.0,A,2420.0362,N,12409.5911,E,,,010523,,*02
$GPGGA,124613.0,2420.0362,N,12409.5910,E,1,,,29.9,M,,M,,*5D
$GPRMC,124613.0,A,2420.0362,N,12409.5910,E,,,010523,,*05
$GPGGA,124643.0,2420.0362,N,12409.5909,E,1,,,29.7,M,,M,,*5E
$GPRMC,124643.0,A,2420.0362,N,12409.5909,E,,,010523,,*08
$GPGGA,124713.0,2420.0362,N,12409.5908,E,1,,,29.6,M,,M,,*5A
$GPRMC,124713.0,A,2420.0362,N,12409.5908,E,,,010523,,*0D
$GPGGA,124743.0,2420.0363,N,12409.5908,E,1,,,29.7,M,,M,,*5F
$GPRMC,124743.0,A,2420.0363,N,12409.5908,E,,,010523,,*09
$GPGGA,124813.1,2420.0363,N,12409.5907,E,1,,,29.7,M,,M,,*5B
$GPRMC,124813.1,A,2420.0363,N,12409.5907,E,,,010523,,*0D
$GPGGA,124843.0,2420.0363,N,12409.5907,E,1,,,29.8,M,,M,,*50
$GPRMC,124843.0,A,2420.0363,N,12409.5907,E,,,010523,,*09
$GPGGA,124913.0,2420.0363,N,12409.5906,E,1,,,29.8,M,,M,,*55
$GPRMC,124913.0,A,2420.0363,N,12409.5906,E,,,010523,,*0C
$GPGGA,124943.0,2420.0362,N,12409.5906,E,1,,,30.2,M,,M,,*53
$GPRMC,124943.0,A,2420.0362,N,12409.5906,E,,,010523,,*08
$GPGGA,125013.0,2420.0362,N,12409.5905,E,1,,,30.6,M,,M,,*59
$GPRMC,125013.0,A,2420.0362,N,12409.5905,E,,,010523,,*06
$GPGGA,125043.0,2420.0361,N,12409.5909,E,1,,,32.2,M,,M,,*55
$GPRMC,125043.0,A,2420.0361,N,12409.5909,E,,,010523,,*0C
$GPGGA,125113.0,2420.0361,N,12409.5909,E,1,,,32.3,M,,M,,*50
$GPRMC,125113.0,A,2420.0361,N,12409.5909,E,,,010523,,*08
$GPGGA,125143.1,2420.0361,N,12409.5909,E,1,,,31.7,M,,M,,*53
$GPRMC,125143.1,A,2420.0361,N,12409.5909,E,,,010523,,*0C
$GPGGA,125213.0,2420.0360,N,12409.5909,E,1,,,30.8,M,,M,,*5B
$GPRMC,125213.0,A,2420.0360,N,12409.5909,E,,,010523,,*0A
$GPGGA,125243.2,2420.0360,N,12409.5908,E,1,,,29.5,M,,M,,*58
$GPRMC,125243.2,A,2420.0360,N,12409.5908,E,,,010523,,*0C
$GPGGA,125313.0,2420.0359,N,12409.5917,E,1,,,29.0,M,,M,,*5F
$GPRMC,125313.0,A,2420.0359,N,12409.5917,E,,,010523,,*0E
$GPGGA,125343.0,2420.0359,N,12409.5917,E,1,,,29.1,M,,M,,*5B
$GPRMC,125343.0,A,2420.0359,N,12409.5917,E,,,010523,,*0B
$GPGGA,125413.0,2420.0360,N,12409.5916,E,1,,,26.9,M,,M,,*55
$GPRMC,125413.0,A,2420.0360,N,12409.5916,E,,,010523,,*02
$GPGGA,125443.0,2420.0360,N,12409.5916,E,1,,,25.9,M,,M,,*53
$GPRMC,125443.0,A,2420.0360,N,12409.5916,E,,,010523,,*07
$GPGGA,125513.0,2420.0360,N,12409.5916,E,1,,,26.0,M,,M,,*5D
$GPRMC,125513.0,A,2420.0360,N,12409.5916,E,,,010523,,*03
$GPGGA,125543.0,2420.0361,N,12409.5915,E,1,,,24.2,M,,M,,*5A
$GPRMC,125543.0,A,2420.0361,N,12409.5915,E,,,010523,,*04
$GPGGA,125613.0,2420.0366,N,12409.5927,E,1,,,22.7,M,,M,,*59
$GPRMC,125613.0,A,2420.0366,N,12409.5927,E,,,010523,,*04
$GPGGA,125643.0,2420.0366,N,12409.5927,E,1,,,22.2,M,,M,,*59
$GPRMC,125643.0,A,2420.0366,N,12409.5927,E,,,010523,,*01
$GPGGA,125713.0,2420.0366,N,12409.5927,E,1,,,21.8,M,,M,,*54
$GPRMC,125713.0,A,2420.0366,N,12409.5927,E,,,010523,,*05
$GPGGA,125743.0,2420.0372,N,12409.5933,E,1,,,15.7,M,,M,,*59
$GPRMC,125743.0,A,2420.0372,N,12409.5933,E,,,010523,,*00
$GPGGA,125813.0,2420.0372,N,12409.5932,E,1,,,9.1,M,,M,,*69
$GPRMC,125813.0,A,2420.0372,N,12409.5932,E,,,010523,,*0B
$GPGGA,125843.0,2420.0372,N,12409.5930,E,1,,,12.8,M,,M,,*5D
$GPRMC,125843.0,A,2420.0372,N,12409.5930,E,,,010523,,*0C
$GPGGA,125913.0,2420.0372,N,12409.5929,E,1,,,14.1,M,,M,,*5E
$GPRMC,125913.0,A,2420.0372,N,12409.5929,E,,,010523,,*00
$GPGGA,125943.0,2420.0370,N,12409.5928,E,1,,,15.9,M,,M,,*51
$GPRMC,125943.0,A,2420.0370,N,12409.5928,E,,,010523,,*06
$GPGGA,130013.0,2420.0353,N,12409.5898,E,1,,,24.4,M,,M,,*5D
$GPRMC,130013.0,A,2420.0353,N,12409.5898,E,,,010523,,*05
$GPGGA,130043.0,2420.0354,N,12409.5897,E,1,,,21.1,M,,M,,*50
$GPRMC,130043.0,A,2420.0354,N,12409.5897,E,,,010523,,*08
$GPGGA,130113.0,2420.0355,N,12409.5897,E,1,,,20.4,M,,M,,*51
$GPRMC,130113.0,A,2420.0355,N,12409.5897,E,,,010523,,*0D
$GPGGA,130143.0,2420.0346,N,12409.5885,E,1,,,19.6,M,,M,,*5D
$GPRMC,130143.0,A,2420.0346,N,12409.5885,E,,,010523,,*09
$GPGGA,130213.0,2420.0347,N,12409.5885,E,1,,,21.9,M,,M,,*5E
$GPRMC,130213.0,A,2420.0347,N,12409.5885,E,,,010523,,*0E
$GPGGA,130243.0,2420.0347,N,12409.5885,E,1,,,22.6,M,,M,,*57
$GPRMC,130243.0,A,2420.0347,N,12409.5885,E,,,010523,,*0B
$GPGGA,130313.0,2420.0346,N,12409.5883,E,1,,,20.6,M,,M,,*56
$GPRMC,130313.0,A,2420.0346,N,12409.5883,E,,,010523,,*08
$GPGGA,130343.0,2420.0347,N,12409.5883,E,1,,,19.3,M,,M,,*5D
$GPRMC,130343.0,A,2420.0347,N,12409.5883,E,,,010523,,*0C
$GPGGA,130413.0,2420.0353,N,12409.5879,E,1,,,18.9,M,,M,,*54
$GPRMC,130413.0,A,2420.0353,N,12409.5879,E,,,010523,,*0E
$GPGGA,130443.0,2420.0353,N,12409.5880,E,1,,,20.0,M,,M,,*55
$GPRMC,130443.0,A,2420.0353,N,12409.5880,E,,,010523,,*0D
$GPGGA,130513.0,2420.0350,N,12409.5869,E,1,,,22.7,M,,M,,*50
$GPRMC,130513.0,A,2420.0350,N,12409.5869,E,,,010523,,*0D
$GPGGA,130543.0,2420.0344,N,12409.5870,E,1,,,23.5,M,,M,,*5B
$GPRMC,130543.0,A,2420.0344,N,12409.5870,E,,,010523,,*05
$GPGGA,130613.0,2420.0344,N,12409.5870,E,1,,,22.0,M,,M,,*59
$GPRMC,130613.0,A,2420.0344,N,12409.5870,E,,,010523,,*03
$GPGGA,130643.0,2420.0345,N,12409.5871,E,1,,,18.8,M,,M,,*5D
$GPRMC,130643.0,A,2420.0345,N,12409.5871,E,,,010523,,*06
$GPGGA,130713.0,2420.0345,N,12409.5871,E,1,,,18.3,M,,M,,*52
$GPRMC,130713.0,A,2420.0345,N,12409.5871,E,,,010523,,*02
$GPGGA,130743.0,2420.0346,N,12409.5872,E,1,,,19.1,M,,M,,*54
$GPRMC,130743.0,A,2420.0346,N,12409.5872,E,,,010523,,*07
$GPGGA,130813.0,2420.0346,N,12409.5873,E,1,,,18.5,M,,M,,*5A
$GPRMC,130813.0,A,2420.0346,N,12409.5873,E,,,010523,,*0C
$GPGGA,130843.0,2420.0347,N,12409.5874,E,1,,,18.1,M,,M,,*5D
$GPRMC,130843.0,A,2420.0347,N,12409.5874,E,,,010523,,*0F
$GPGGA,130913.0,2420.0348,N,12409.5874,E,1,,,17.8,M,,M,,*50
$GPRMC,130913.0,A,2420.0348,N,12409.5874,E,,,010523,,*04
$GPGGA,130943.0,2420.0344,N,12409.5870,E,1,,,16.4,M,,M,,*50
$GPRMC,130943.0,A,2420.0344,N,12409.5870,E,,,010523,,*09
$GPGGA,131013.0,2420.0336,N,12409.5869,E,1,,,25.6,M,,M,,*52
$GPRMC,131013.0,A,2420.0336,N,12409.5869,E,,,010523,,*09
$GPGGA,131043.0,2420.0337,N,12409.5871,E,1,,,21.4,M,,M,,*59
$GPRMC,131043.0,A,2420.0337,N,12409.5871,E,,,010523,,*04
$GPGGA,131113.0,2420.0337,N,12409.5872,E,1,,,21.4,M,,M,,*5E
$GPRMC,131113.0,A,2420.0337,N,12409.5872,E,,,010523,,*03
$GPGGA,131143.0,2420.0335,N,12409.5875,E,1,,,22.0,M,,M,,*59
$GPRMC,131143.0,A,2420.0335,N,12409.5875,E,,,010523,,*03
$GPGGA,131213.0,2420.0335,N,12409.5875,E,1,,,21.2,M,,M,,*5E
$GPRMC,131213.0,A,2420.0335,N,12409.5875,E,,,010523,,*05
$GPGGA,131243.0,2420.0337,N,12409.5859,E,1,,,20.4,M,,M,,*50
$GPRMC,131243.0,A,2420.0337,N,12409.5859,E,,,010523,,*0C
$GPGGA,131313.1,2420.0338,N,12409.5860,E,1,,,17.8,M,,M,,*58
$GPRMC,131313.1,A,2420.0338,N,12409.5860,E,,,010523,,*0C
$GPGGA,131343.0,2420.0325,N,12409.5862,E,1,,,14.5,M,,M,,*5C
$GPRMC,131343.0,A,2420.0325,N,12409.5862,E,,,010523,,*06
$GPGGA,131413.0,2420.0327,N,12409.5862,E,1,,,15.0,M,,M,,*58
$GPRMC,131413.0,A,2420.0327,N,12409.5862,E,,,010523,,*06
$GPGGA,131443.0,2420.0317,N,12409.5862,E,1,,,13.5,M,,M,,*5D
$GPRMC,131443.0,A,2420.0317,N,12409.5862,E,,,010523,,*00
$GPGGA,131513.0,2420.0316,N,12409.5861,E,1,,,21.9,M,,M,,*56
$GPRMC,131513.0,A,2420.0316,N,12409.5861,E,,,010523,,*06
$GPGGA,131543.0,2420.0307,N,12409.5864,E,1,,,24.6,M,,M,,*5C
$GPRMC,131543.0,A,2420.0307,N,12409.5864,E,,,010523,,*06
$GPGGA,131613.2,2420.0308,N,12409.5864,E,1,,,24.2,M,,M,,*53
$GPRMC,131613.2,A,2420.0308,N,12409.5864,E,,,010523,,*0D
$GPGGA,131643.0,2420.0304,N,12409.5863,E,1,,,26.0,M,,M,,*5F
$GPRMC,131643.0,A,2420.0304,N,12409.5863,E,,,010523,,*01
$GPGGA,131713.0,2420.0299,N,12409.5861,E,1,,,26.1,M,,M,,*5D
$GPRMC,131713.0,A,2420.0299,N,12409.5861,E,,,010523,,*02
$GPGGA,131743.0,2420.0300,N,12409.5862,E,1,,,25.5,M,,M,,*5D
$GPRMC,131743.0,A,2420.0300,N,12409.5862,E,,,010523,,*05
$GPGGA,131813.1,2420.0300,N,12409.5862,E,1,,,25.1,M,,M,,*52
$GPRMC,131813.1,A,2420.0300,N,12409.5862,E,,,010523,,*0E
$GPGGA,131843.0,2420.0301,N,12409.5861,E,1,,,24.5,M,,M,,*51
$GPRMC,131843.0,A,2420.0301,N,12409.5861,E,,,010523,,*08
$GPGGA,131913.0,2420.0301,N,12409.5861,E,1,,,24.5,M,,M,,*55
$GPRMC,131913.0,A,2420.0301,N,12409.5861,E,,,010523,,*0C
$GPGGA,131943.0,2420.0302,N,12409.5862,E,1,,,24.6,M,,M,,*53
$GPRMC,131943.0,A,2420.0302,N,12409.5862,E,,,010523,,*09
$GPGGA,132013.0,2420.0304,N,12409.5862,E,1,,,24.3,M,,M,,*5F
$GPRMC,132013.0,A,2420.0304,N,12409.5862,E,,,010523,,*00
$GPGGA,132043.0,2420.0305,N,12409.5862,E,1,,,23.9,M,,M,,*56
$GPRMC,132043.0,A,2420.0305,N,12409.5862,E,,,010523,,*04
$GPGGA,132113.0,2420.0306,N,12409.5862,E,1,,,23.7,M,,M,,*5F
$GPRMC,132113.0,A,2420.0306,N,12409.5862,E,,,010523,,*03
$GPGGA,132143.0,2420.0308,N,12409.5862,E,1,,,23.6,M,,M,,*55
$GPRMC,132143.0,A,2420.0308,N,12409.5862,E,,,010523,,*08
$GPGGA,132213.0,2420.0309,N,12409.5861,E,1,,,24.2,M,,M,,*52
$GPRMC,132213.0,A,2420.0309,N,12409.5861,E,,,010523,,*0C
$GPGGA,132243.0,2420.0310,N,12409.5861,E,1,,,24.7,M,,M,,*5A
$GPRMC,132243.0,A,2420.0310,N,12409.5861,E,,,010523,,*01
$GPGGA,132313.0,2420.0311,N,12409.5861,E,1,,,25.4,M,,M,,*5D
$GPRMC,132313.0,A,2420.0311,N,12409.5861,E,,,010523,,*04
$GPGGA,132343.0,2420.0311,N,12409.5861,E,1,,,25.5,M,,M,,*59
$GPRMC,132343.0,A,2420.0311,N,12409.5861,E,,,010523,,*01
$GPGGA,132413.0,2420.0312,N,12409.5861,E,1,,,25.7,M,,M,,*5A
$GPRMC,132413.0,A,2420.0312,N,12409.5861,E,,,010523,,*00
$GPGGA,132443.0,2420.0312,N,12409.5862,E,1,,,26.1,M,,M,,*59
$GPRMC,132443.0,A,2420.0312,N,12409.5862,E,,,010523,,*06
$GPGGA,132513.0,2420.0311,N,12409.5862,E,1,,,27.0,M,,M,,*5E
$GPRMC,132513.0,A,2420.0311,N,12409.5862,E,,,010523,,*01
$GPGGA,132543.0,2420.0311,N,12409.5862,E,1,,,26.9,M,,M,,*53
$GPRMC,132543.0,A,2420.0311,N,12409.5862,E,,,010523,,*04
$GPGGA,132613.0,2420.0308,N,12409.5870,E,1,,,28.5,M,,M,,*5C
$GPRMC,132613.0,A,2420.0308,N,12409.5870,E,,,010523,,*09
$GPGGA,132643.0,2420.0309,N,12409.5870,E,1,,,28.4,M,,M,,*59
$GPRMC,132643.0,A,2420.0309,N,12409.5870,E,,,010523,,*0D
$GPGGA,132713.0,2420.0309,N,12409.5869,E,1,,,28.4,M,,M,,*55
$GPRMC,132713.0,A,2420.0309,N,12409.5869,E,,,010523,,*01
$GPGGA,132743.0,2420.0310,N,12409.5869,E,1,,,28.0,M,,M,,*5C
$GPRMC,132743.0,A,2420.0310,N,12409.5869,E,,,010523,,*0C
$GPGGA,132813.0,2420.0303,N,12409.5869,E,1,,,29.4,M,,M,,*51
$GPRMC,132813.0,A,2420.0303,N,12409.5869,E,,,010523,,*04
$GPGGA,132843.0,2420.0304,N,12409.5869,E,1,,,26.9,M,,M,,*51
$GPRMC,132843.0,A,2420.0304,N,12409.5869,E,,,010523,,*06
$GPGGA,132913.0,2420.0305,N,12409.5869,E,1,,,26.2,M,,M,,*5F
$GPRMC,132913.0,A,2420.0305,N,12409.5869,E,,,010523,,*03
$GPGGA,132943.0,2420.0305,N,12409.5869,E,1,,,25.1,M,,M,,*5A
$GPRMC,132943.0,A,2420.0305,N,12409.5869,E,,,010523,,*06
$GPGGA,133013.0,2420.0303,N,12409.5869,E,1,,,26.7,M,,M,,*54
$GPRMC,133013.0,A,2420.0303,N,12409.5869,E,,,010523,,*0D
$GPGGA,133043.0,2420.0296,N,12409.5870,E,1,,,32.0,M,,M,,*56
$GPRMC,133043.0,A,2420.0296,N,12409.5870,E,,,010523,,*0D
$GPGGA,133113.0,2420.0290,N,12409.5869,E,1,,,31.6,M,,M,,*59
$GPRMC,133113.0,A,2420.0290,N,12409.5869,E,,,010523,,*07
$GPGGA,133143.0,2420.0291,N,12409.5869,E,1,,,31.6,M,,M,,*5D
$GPRMC,133143.0,A,2420.0291,N,12409.5869,E,,,010523,,*03
$GPGGA,133213.0,2420.0292,N,12409.5869,E,1,,,29.6,M,,M,,*51
$GPRMC,133213.0,A,2420.0292,N,12409.5869,E,,,010523,,*06
$GPGGA,133243.0,2420.0297,N,12409.5868,E,1,,,27.1,M,,M,,*59
$GPRMC,133243.0,A,2420.0297,N,12409.5868,E,,,010523,,*07
$GPGGA,133313.0,2420.0306,N,12409.5863,E,1,,,28.9,M,,M,,*58
$GPRMC,133313.0,A,2420.0306,N,12409.5863,E,,,010523,,*01
$GPGGA,133343.0,2420.0308,N,12409.5862,E,1,,,26.5,M,,M,,*50
$GPRMC,133343.0,A,2420.0308,N,12409.5862,E,,,010523,,*0B
$GPGGA,133413.0,2420.0330,N,12409.5870,E,1,,,23.0,M,,M,,*5A
$GPRMC,133413.0,A,2420.0330,N,12409.5870,E,,,010523,,*01
$GPGGA,133443.0,2420.0336,N,12409.5858,E,1,,,17.8,M,,M,,*5C
$GPRMC,133443.0,A,2420.0336,N,12409.5858,E,,,010523,,*08
$GPGGA,133513.2,2420.0337,N,12409.5857,E,1,,,22.1,M,,M,,*5B
$GPRMC,133513.2,A,2420.0337,N,12409.5857,E,,,010523,,*00
$GPGGA,133543.0,2420.0338,N,12409.5857,E,1,,,21.2,M,,M,,*53
$GPRMC,133543.0,A,2420.0338,N,12409.5857,E,,,010523,,*08
$GPGGA,133613.0,2420.0339,N,12409.5857,E,1,,,18.7,M,,M,,*5B
$GPRMC,133613.0,A,2420.0339,N,12409.5857,E,,,010523,,*0F
$GPGGA,133643.0,2420.0339,N,12409.5855,E,1,,,17.3,M,,M,,*57
$GPRMC,133643.0,A,2420.0339,N,12409.5855,E,,,010523,,*08
$GPGGA,133713.0,2420.0342,N,12409.5859,E,1,,,15.3,M,,M,,*51
$GPRMC,133713.0,A,2420.0342,N,12409.5859,E,,,010523,,*0C
$GPGGA,133743.0,2420.0341,N,12409.5859,E,1,,,17.1,M,,M,,*57
$GPRMC,133743.0,A,2420.0341,N,12409.5859,E,,,010523,,*0A
$GPGGA,133813.0,2420.0343,N,12409.5846,E,1,,,15.1,M,,M,,*53
$GPRMC,133813.0,A,2420.0343,N,12409.5846,E,,,010523,,*0C
$GPGGA,133843.0,2420.0344,N,12409.5848,E,1,,,16.5,M,,M,,*58
$GPRMC,133843.0,A,2420.0344,N,12409.5848,E,,,010523,,*00
$GPGGA,133913.0,2420.0344,N,12409.5850,E,1,,,17.6,M,,M,,*57
$GPRMC,133913.0,A,2420.0344,N,12409.5850,E,,,010523,,*0D
$GPGGA,133943.0,2420.0344,N,12409.5850,E,1,,,17.6,M,,M,,*52
$GPRMC,133943.0,A,2420.0344,N,12409.5850,E,,,010523,,*08
