@Olympus/+0900/+0900
$GPGGA,150008.0,2420.0332,N,12409.5855,E,1,,,32.7,M,,M,,*53
$GPRMC,150008.0,A,2420.0332,N,12409.5855,E,,,290423,,*04
$GPGGA,150038.0,2420.0337,N,12409.5861,E,1,,,32.2,M,,M,,*57
$GPRMC,150038.0,A,2420.0337,N,12409.5861,E,,,290423,,*05
$GPGGA,150108.1,2420.0338,N,12409.5866,E,1,,,33.9,M,,M,,*56
$GPRMC,150108.1,A,2420.0338,N,12409.5866,E,,,290423,,*0E
$GPGGA,150138.0,2420.0332,N,12409.5872,E,1,,,45.6,M,,M,,*55
$GPRMC,150138.0,A,2420.0332,N,12409.5872,E,,,290423,,*03
$GPGGA,150208.0,2420.0331,N,12409.5873,E,1,,,37.1,M,,M,,*55
$GPRMC,150208.0,A,2420.0331,N,12409.5873,E,,,290423,,*01
$GPGGA,150238.0,2420.0318,N,12409.5868,E,1,,,45.1,M,,M,,*52
$GPRMC,150238.0,A,2420.0318,N,12409.5868,E,,,290423,,*03
$GPGGA,150308.0,2420.0311,N,12409.5883,E,1,,,45.0,M,,M,,*5D
$GPRMC,150308.0,A,2420.0311,N,12409.5883,E,,,290423,,*0D
$GPGGA,150338.0,2420.0314,N,12409.5885,E,1,,,21.1,M,,M,,*5E
$GPRMC,150338.0,A,2420.0314,N,12409.5885,E,,,290423,,*0D
$GPGGA,150408.0,2420.0323,N,12409.5888,E,1,,,28.4,M,,M,,*5F
$GPRMC,150408.0,A,2420.0323,N,12409.5888,E,,,290423,,*00
$GPGGA,150438.0,2420.0330,N,12409.5902,E,1,,,20.3,M,,M,,*52
$GPRMC,150438.0,A,2420.0330,N,12409.5902,E,,,290423,,*02
$GPGGA,150508.0,2420.0330,N,12409.5903,E,1,,,27.9,M,,M,,*5C
$GPRMC,150508.0,A,2420.0330,N,12409.5903,E,,,290423,,*01
$GPGGA,150538.0,2420.0336,N,12409.5899,E,1,,,33.6,M,,M,,*51
$GPRMC,150538.0,A,2420.0336,N,12409.5899,E,,,290423,,*06
$GPGGA,150608.0,2420.0334,N,12409.5899,E,1,,,35.0,M,,M,,*53
$GPRMC,150608.0,A,2420.0334,N,12409.5899,E,,,290423,,*04
$GPGGA,150638.0,2420.0334,N,12409.5897,E,1,,,31.2,M,,M,,*58
$GPRMC,150638.0,A,2420.0334,N,12409.5897,E,,,290423,,*09
$GPGGA,150708.0,2420.0339,N,12409.5895,E,1,,,30.2,M,,M,,*54
$GPRMC,150708.0,A,2420.0339,N,12409.5895,E,,,290423,,*04
$GPGGA,150738.0,2420.0339,N,12409.5896,E,1,,,44.7,M,,M,,*52
$GPRMC,150738.0,A,2420.0339,N,12409.5896,E,,,290423,,*04
$GPGGA,150808.0,2420.0353,N,12409.5912,E,1,,,51.1,M,,M,,*5D
$GPRMC,150808.0,A,2420.0353,N,12409.5912,E,,,290423,,*09
$GPGGA,150838.0,2420.0364,N,12409.5932,E,1,,,43.2,M,,M,,*58
$GPRMC,150838.0,A,2420.0364,N,12409.5932,E,,,290423,,*0C
$GPGGA,150908.0,2420.0393,N,12409.5945,E,1,,,16.6,M,,M,,*56
$GPRMC,150908.0,A,2420.0393,N,12409.5945,E,,,290423,,*06
$GPGGA,150938.0,2420.0404,N,12409.5933,E,1,,,8.7,M,,M,,*63
$GPRMC,150938.0,A,2420.0404,N,12409.5933,E,,,290423,,*0D
$GPGGA,151008.0,2420.0385,N,12409.5924,E,1,,,10.3,M,,M,,*5D
$GPRMC,151008.0,A,2420.0385,N,12409.5924,E,,,290423,,*0E
$GPGGA,151038.0,2420.0386,N,12409.5925,E,1,,,12.0,M,,M,,*5D
$GPRMC,151038.0,A,2420.0386,N,12409.5925,E,,,290423,,*0F
$GPGGA,151108.0,2420.0387,N,12409.5925,E,1,,,2.2,M,,M,,*6D
$GPRMC,151108.0,A,2420.0387,N,12409.5925,E,,,290423,,*0C
$GPGGA,151138.0,2420.0386,N,12409.5925,E,1,,,18.4,M,,M,,*52
$GPRMC,151138.0,A,2420.0386,N,12409.5925,E,,,290423,,*0E
$GPGGA,151208.0,2420.0386,N,12409.5925,E,1,,,17.8,M,,M,,*51
$GPRMC,151208.0,A,2420.0386,N,12409.5925,E,,,290423,,*0E
$GPGGA,151238.0,2420.0377,N,12409.5920,E,1,,,47.4,M,,M,,*50
$GPRMC,151238.0,A,2420.0377,N,12409.5920,E,,,290423,,*06
$GPGGA,151308.0,2420.0376,N,12409.5916,E,1,,,22.2,M,,M,,*53
$GPRMC,151308.0,A,2420.0376,N,12409.5916,E,,,290423,,*00
$GPGGA,151338.0,2420.0378,N,12409.5917,E,1,,,12.2,M,,M,,*5C
$GPRMC,151338.0,A,2420.0378,N,12409.5917,E,,,290423,,*0C
$GPGGA,151408.0,2420.0381,N,12409.5918,E,1,,,1.4,M,,M,,*65
$GPRMC,151408.0,A,2420.0381,N,12409.5918,E,,,290423,,*01
$GPGGA,151438.0,2420.0383,N,12409.5919,E,1,,,6.2,M,,M,,*64
$GPRMC,151438.0,A,2420.0383,N,12409.5919,E,,,290423,,*01
$GPGGA,151508.0,2420.0386,N,12409.5919,E,1,,,9.6,M,,M,,*68
$GPRMC,151508.0,A,2420.0386,N,12409.5919,E,,,290423,,*06
$GPGGA,151538.1,2420.0389,N,12409.5923,E,1,,,1.8,M,,M,,*6A
$GPRMC,151538.1,A,2420.0389,N,12409.5923,E,,,290423,,*02
$GPGGA,151608.0,2420.0383,N,12409.5927,E,1,,,13.5,M,,M,,*5B
$GPRMC,151608.0,A,2420.0383,N,12409.5927,E,,,290423,,*0D
$GPGGA,151638.0,2420.0382,N,12409.5925,E,1,,,17.7,M,,M,,*5D
$GPRMC,151638.0,A,2420.0382,N,12409.5925,E,,,290423,,*0D
$GPGGA,151708.0,2420.0393,N,12409.5915,E,1,,,-0.3,M,,M,,*43
$GPRMC,151708.0,A,2420.0393,N,12409.5915,E,,,290423,,*0C
$GPGGA,151738.0,2420.0429,N,12409.5896,E,1,,,-2.6,M,,M,,*4B
$GPRMC,151738.0,A,2420.0429,N,12409.5896,E,,,290423,,*03
$GPGGA,151808.0,2420.0429,N,12409.5893,E,1,,,4.1,M,,M,,*6E
$GPRMC,151808.0,A,2420.0429,N,12409.5893,E,,,290423,,*0A
$GPGGA,151838.2,2420.0431,N,12409.5890,E,1,,,-5.1,M,,M,,*49
$GPRMC,151838.2,A,2420.0431,N,12409.5890,E,,,290423,,*01
$GPGGA,151908.0,2420.0389,N,12409.5873,E,1,,,17.6,M,,M,,*59
$GPRMC,151908.0,A,2420.0389,N,12409.5873,E,,,290423,,*08
$GPGGA,151938.0,2420.0375,N,12409.5877,E,1,,,12.6,M,,M,,*58
$GPRMC,151938.0,A,2420.0375,N,12409.5877,E,,,290423,,*0C
$GPGGA,152008.0,2420.0377,N,12409.5874,E,1,,,7.7,M,,M,,*65
$GPRMC,152008.0,A,2420.0377,N,12409.5874,E,,,290423,,*04
$GPGGA,152038.0,2420.0380,N,12409.5869,E,1,,,0.8,M,,M,,*6A
$GPRMC,152038.0,A,2420.0380,N,12409.5869,E,,,290423,,*03
$GPGGA,152108.0,2420.0387,N,12409.5865,E,1,,,-15.4,M,,M,,*76
$GPRMC,152108.0,A,2420.0387,N,12409.5865,E,,,290423,,*0A
$GPGGA,152138.0,2420.0392,N,12409.5861,E,1,,,-0.5,M,,M,,*40
$GPRMC,152138.0,A,2420.0392,N,12409.5861,E,,,290423,,*09
$GPGGA,152208.0,2420.0392,N,12409.5857,E,1,,,8.5,M,,M,,*60
$GPRMC,152208.0,A,2420.0392,N,12409.5857,E,,,290423,,*0C
$GPGGA,152238.0,2420.0390,N,12409.5856,E,1,,,13.8,M,,M,,*57
$GPRMC,152238.0,A,2420.0390,N,12409.5856,E,,,290423,,*0C
$GPGGA,152338.1,2420.0392,N,12409.5848,E,1,,,7.0,M,,M,,*67
$GPRMC,152338.1,A,2420.0392,N,12409.5848,E,,,290423,,*01
$GPGGA,152408.0,2420.0385,N,12409.5854,E,1,,,8.8,M,,M,,*6E
$GPRMC,152408.0,A,2420.0385,N,12409.5854,E,,,290423,,*0F
$GPGGA,152438.0,2420.0385,N,12409.5853,E,1,,,4.2,M,,M,,*6C
$GPRMC,152438.0,A,2420.0385,N,12409.5853,E,,,290423,,*0B
$GPGGA,152508.0,2420.0385,N,12409.5851,E,1,,,3.7,M,,M,,*6E
$GPRMC,152508.0,A,2420.0385,N,12409.5851,E,,,290423,,*0B
$GPGGA,152538.0,2420.0388,N,12409.5847,E,1,,,8.1,M,,M,,*6A
$GPRMC,152538.0,A,2420.0388,N,12409.5847,E,,,290423,,*02
$GPGGA,152608.0,2420.0389,N,12409.5843,E,1,,,11.8,M,,M,,*5E
$GPRMC,152608.0,A,2420.0389,N,12409.5843,E,,,290423,,*07
$GPGGA,152638.0,2420.0390,N,12409.5838,E,1,,,13.9,M,,M,,*5A
$GPRMC,152638.0,A,2420.0390,N,12409.5838,E,,,290423,,*00
$GPGGA,152708.0,2420.0371,N,12409.5858,E,1,,,27.6,M,,M,,*59
$GPRMC,152708.0,A,2420.0371,N,12409.5858,E,,,290423,,*0B
$GPGGA,152738.0,2420.0359,N,12409.5855,E,1,,,34.2,M,,M,,*5B
$GPRMC,152738.0,A,2420.0359,N,12409.5855,E,,,290423,,*0F
$GPGGA,152808.0,2420.0358,N,12409.5855,E,1,,,35.8,M,,M,,*5D
$GPRMC,152808.0,A,2420.0358,N,12409.5855,E,,,290423,,*02
$GPGGA,152838.0,2420.0357,N,12409.5854,E,1,,,39.1,M,,M,,*55
$GPRMC,152838.0,A,2420.0357,N,12409.5854,E,,,290423,,*0F
$GPGGA,152908.1,2420.0356,N,12409.5850,E,1,,,40.8,M,,M,,*54
$GPRMC,152908.1,A,2420.0356,N,12409.5850,E,,,290423,,*09
$GPGGA,152938.0,2420.0354,N,12409.5852,E,1,,,53.6,M,,M,,*5A
$GPRMC,152938.0,A,2420.0354,N,12409.5852,E,,,290423,,*0B
$GPGGA,153008.0,2420.0366,N,12409.5863,E,1,,,54.7,M,,M,,*54
$GPRMC,153008.0,A,2420.0366,N,12409.5863,E,,,290423,,*03
$GPGGA,153038.0,2420.0365,N,12409.5863,E,1,,,56.3,M,,M,,*52
$GPRMC,153038.0,A,2420.0365,N,12409.5863,E,,,290423,,*03
$GPGGA,153108.0,2420.0362,N,12409.5862,E,1,,,66.2,M,,M,,*54
$GPRMC,153108.0,A,2420.0362,N,12409.5862,E,,,290423,,*07
$GPGGA,153138.0,2420.0358,N,12409.5860,E,1,,,63.2,M,,M,,*59
$GPRMC,153138.0,A,2420.0358,N,12409.5860,E,,,290423,,*0F
$GPGGA,153208.0,2420.0355,N,12409.5857,E,1,,,62.9,M,,M,,*5A
$GPRMC,153208.0,A,2420.0355,N,12409.5857,E,,,290423,,*06
$GPGGA,153238.0,2420.0352,N,12409.5856,E,1,,,60.9,M,,M,,*5D
$GPRMC,153238.0,A,2420.0352,N,12409.5856,E,,,290423,,*03
$GPGGA,153308.0,2420.0349,N,12409.5854,E,1,,,51.3,M,,M,,*5F
$GPRMC,153308.0,A,2420.0349,N,12409.5854,E,,,290423,,*09
$GPGGA,153338.0,2420.0347,N,12409.5855,E,1,,,47.7,M,,M,,*50
$GPRMC,153338.0,A,2420.0347,N,12409.5855,E,,,290423,,*05
$GPGGA,153408.0,2420.0352,N,12409.5862,E,1,,,41.7,M,,M,,*52
$GPRMC,153408.0,A,2420.0352,N,12409.5862,E,,,290423,,*01
$GPGGA,153438.0,2420.0350,N,12409.5863,E,1,,,40.8,M,,M,,*5C
$GPRMC,153438.0,A,2420.0350,N,12409.5863,E,,,290423,,*01
$GPGGA,153508.0,2420.0349,N,12409.5862,E,1,,,37.5,M,,M,,*5A
$GPRMC,153508.0,A,2420.0349,N,12409.5862,E,,,290423,,*0A
$GPGGA,153538.0,2420.0349,N,12409.5858,E,1,,,32.9,M,,M,,*59
$GPRMC,153538.0,A,2420.0349,N,12409.5858,E,,,290423,,*00
$GPGGA,153608.0,2420.0348,N,12409.5856,E,1,,,34.1,M,,M,,*58
$GPRMC,153608.0,A,2420.0348,N,12409.5856,E,,,290423,,*0F
$GPGGA,153638.0,2420.0348,N,12409.5855,E,1,,,40.6,M,,M,,*5C
$GPRMC,153638.0,A,2420.0348,N,12409.5855,E,,,290423,,*0F
$GPGGA,153708.1,2420.0345,N,12409.5849,E,1,,,37.1,M,,M,,*58
$GPRMC,153708.1,A,2420.0345,N,12409.5849,E,,,290423,,*0C
$GPGGA,153738.0,2420.0338,N,12409.5845,E,1,,,42.8,M,,M,,*57
$GPRMC,153738.0,A,2420.0338,N,12409.5845,E,,,290423,,*08
$GPGGA,153808.0,2420.0338,N,12409.5843,E,1,,,45.3,M,,M,,*51
$GPRMC,153808.0,A,2420.0338,N,12409.5843,E,,,290423,,*02
$GPGGA,153838.0,2420.0336,N,12409.5845,E,1,,,47.8,M,,M,,*53
$GPRMC,153838.0,A,2420.0336,N,12409.5845,E,,,290423,,*09
$GPGGA,153908.0,2420.0339,N,12409.5848,E,1,,,47.3,M,,M,,*58
$GPRMC,153908.0,A,2420.0339,N,12409.5848,E,,,290423,,*09
$GPGGA,153938.0,2420.0337,N,12409.5843,E,1,,,41.7,M,,M,,*5C
$GPRMC,153938.0,A,2420.0337,N,12409.5843,E,,,290423,,*0F
$GPGGA,154008.0,2420.0337,N,12409.5844,E,1,,,47.1,M,,M,,*56
$GPRMC,154008.0,A,2420.0337,N,12409.5844,E,,,290423,,*05
$GPGGA,154038.0,2420.0336,N,12409.5846,E,1,,,46.5,M,,M,,*53
$GPRMC,154038.0,A,2420.0336,N,12409.5846,E,,,290423,,*05
$GPGGA,154108.0,2420.0344,N,12409.5848,E,1,,,47.6,M,,M,,*58
$GPRMC,154108.0,A,2420.0344,N,12409.5848,E,,,290423,,*0C
$GPGGA,154138.0,2420.0342,N,12409.5845,E,1,,,44.2,M,,M,,*57
$GPRMC,154138.0,A,2420.0342,N,12409.5845,E,,,290423,,*04
$GPGGA,154208.0,2420.0347,N,12409.5848,E,1,,,48.5,M,,M,,*54
$GPRMC,154208.0,A,2420.0347,N,12409.5848,E,,,290423,,*0C
$GPGGA,154238.1,2420.0343,N,12409.5850,E,1,,,51.0,M,,M,,*56
$GPRMC,154238.1,A,2420.0343,N,12409.5850,E,,,290423,,*03
$GPGGA,154308.0,2420.0344,N,12409.5851,E,1,,,22.1,M,,M,,*56
$GPRMC,154308.0,A,2420.0344,N,12409.5851,E,,,290423,,*06
$GPGGA,154338.0,2420.0346,N,12409.5850,E,1,,,39.8,M,,M,,*55
$GPRMC,154338.0,A,2420.0346,N,12409.5850,E,,,290423,,*06
$GPGGA,154408.0,2420.0347,N,12409.5851,E,1,,,47.0,M,,M,,*50
$GPRMC,154408.0,A,2420.0347,N,12409.5851,E,,,290423,,*02
$GPGGA,154438.0,2420.0345,N,12409.5853,E,1,,,50.0,M,,M,,*55
$GPRMC,154438.0,A,2420.0345,N,12409.5853,E,,,290423,,*01
$GPGGA,154508.0,2420.0344,N,12409.5852,E,1,,,54.7,M,,M,,*54
$GPRMC,154508.0,A,2420.0344,N,12409.5852,E,,,290423,,*03
$GPGGA,154538.0,2420.0342,N,12409.5850,E,1,,,53.1,M,,M,,*52
$GPRMC,154538.0,A,2420.0342,N,12409.5850,E,,,290423,,*04
$GPGGA,154608.1,2420.0343,N,12409.5852,E,1,,,28.4,M,,M,,*59
$GPRMC,154608.1,A,2420.0343,N,12409.5852,E,,,290423,,*06
$GPGGA,154638.0,2420.0345,N,12409.5851,E,1,,,31.2,M,,M,,*50
$GPRMC,154638.0,A,2420.0345,N,12409.5851,E,,,290423,,*01
$GPGGA,154708.0,2420.0346,N,12409.5848,E,1,,,40.8,M,,M,,*55
$GPRMC,154708.0,A,2420.0346,N,12409.5848,E,,,290423,,*08
$GPGGA,154738.0,2420.0347,N,12409.5845,E,1,,,35.0,M,,M,,*50
$GPRMC,154738.0,A,2420.0347,N,12409.5845,E,,,290423,,*07
$GPGGA,154808.0,2420.0348,N,12409.5843,E,1,,,25.7,M,,M,,*53
$GPRMC,154808.0,A,2420.0348,N,12409.5843,E,,,290423,,*02
$GPGGA,154838.0,2420.0349,N,12409.5844,E,1,,,21.0,M,,M,,*55
$GPRMC,154838.0,A,2420.0349,N,12409.5844,E,,,290423,,*07
$GPGGA,154908.1,2420.0352,N,12409.5845,E,1,,,19.6,M,,M,,*50
$GPRMC,154908.1,A,2420.0352,N,12409.5845,E,,,290423,,*0F
$GPGGA,154938.0,2420.0356,N,12409.5848,E,1,,,30.5,M,,M,,*53
$GPRMC,154938.0,A,2420.0356,N,12409.5848,E,,,290423,,*04
$GPGGA,155008.0,2420.0357,N,12409.5846,E,1,,,31.8,M,,M,,*5B
$GPRMC,155008.0,A,2420.0357,N,12409.5846,E,,,290423,,*00
$GPGGA,155038.0,2420.0356,N,12409.5843,E,1,,,38.9,M,,M,,*54
$GPRMC,155038.0,A,2420.0356,N,12409.5843,E,,,290423,,*07
$GPGGA,155108.0,2420.0354,N,12409.5842,E,1,,,42.5,M,,M,,*54
$GPRMC,155108.0,A,2420.0354,N,12409.5842,E,,,290423,,*06
$GPGGA,155138.0,2420.0338,N,12409.5847,E,1,,,41.6,M,,M,,*58
$GPRMC,155138.0,A,2420.0338,N,12409.5847,E,,,290423,,*0A
$GPGGA,155208.0,2420.0339,N,12409.5847,E,1,,,32.8,M,,M,,*53
$GPRMC,155208.0,A,2420.0339,N,12409.5847,E,,,290423,,*0B
$GPGGA,155238.0,2420.0341,N,12409.5847,E,1,,,30.2,M,,M,,*57
$GPRMC,155238.0,A,2420.0341,N,12409.5847,E,,,290423,,*07
$GPGGA,155308.0,2420.0343,N,12409.5848,E,1,,,33.5,M,,M,,*5C
$GPRMC,155308.0,A,2420.0343,N,12409.5848,E,,,290423,,*08
$GPGGA,155338.0,2420.0343,N,12409.5847,E,1,,,43.3,M,,M,,*51
$GPRMC,155338.0,A,2420.0343,N,12409.5847,E,,,290423,,*04
$GPGGA,155408.0,2420.0344,N,12409.5845,E,1,,,42.2,M,,M,,*50
$GPRMC,155408.0,A,2420.0344,N,12409.5845,E,,,290423,,*05
$GPGGA,155438.0,2420.0346,N,12409.5843,E,1,,,29.5,M,,M,,*5D
$GPRMC,155438.0,A,2420.0346,N,12409.5843,E,,,290423,,*02
$GPGGA,155508.0,2420.0349,N,12409.5841,E,1,,,21.7,M,,M,,*58
$GPRMC,155508.0,A,2420.0349,N,12409.5841,E,,,290423,,*0D
$GPGGA,155538.0,2420.0350,N,12409.5839,E,1,,,31.7,M,,M,,*5D
$GPRMC,155538.0,A,2420.0350,N,12409.5839,E,,,290423,,*09
$GPGGA,155608.0,2420.0348,N,12409.5839,E,1,,,47.0,M,,M,,*52
$GPRMC,155608.0,A,2420.0348,N,12409.5839,E,,,290423,,*00
$GPGGA,155638.0,2420.0340,N,12409.5832,E,1,,,53.3,M,,M,,*54
$GPRMC,155638.0,A,2420.0340,N,12409.5832,E,,,290423,,*00
$GPGGA,155708.0,2420.0339,N,12409.5831,E,1,,,50.7,M,,M,,*5C
$GPRMC,155708.0,A,2420.0339,N,12409.5831,E,,,290423,,*0F
$GPGGA,155738.0,2420.0339,N,12409.5828,E,1,,,48.0,M,,M,,*59
$GPRMC,155738.0,A,2420.0339,N,12409.5828,E,,,290423,,*04
$GPGGA,155808.0,2420.0335,N,12409.5829,E,1,,,59.8,M,,M,,*50
$GPRMC,155808.0,A,2420.0335,N,12409.5829,E,,,290423,,*05
$GPGGA,155838.1,2420.0334,N,12409.5830,E,1,,,58.7,M,,M,,*55
$GPRMC,155838.1,A,2420.0334,N,12409.5830,E,,,290423,,*0E
$GPGGA,155908.0,2420.0331,N,12409.5826,E,1,,,49.0,M,,M,,*53
$GPRMC,155908.0,A,2420.0331,N,12409.5826,E,,,290423,,*0F
$GPGGA,155938.0,2420.0336,N,12409.5829,E,1,,,41.8,M,,M,,*58
$GPRMC,155938.0,A,2420.0336,N,12409.5829,E,,,290423,,*04
$GPGGA,160008.0,2420.0340,N,12409.5840,E,1,,,57.6,M,,M,,*53
$GPRMC,160008.0,A,2420.0340,N,12409.5840,E,,,290423,,*06
$GPGGA,160038.0,2420.0341,N,12409.5843,E,1,,,60.9,M,,M,,*59
$GPRMC,160038.0,A,2420.0341,N,12409.5843,E,,,290423,,*07
$GPGGA,160108.0,2420.0343,N,12409.5848,E,1,,,46.0,M,,M,,*5F
$GPRMC,160108.0,A,2420.0343,N,12409.5848,E,,,290423,,*0C
$GPGGA,160138.0,2420.0348,N,12409.5854,E,1,,,38.4,M,,M,,*57
$GPRMC,160138.0,A,2420.0348,N,12409.5854,E,,,290423,,*09
$GPGGA,160208.0,2420.0349,N,12409.5857,E,1,,,45.0,M,,M,,*5B
$GPRMC,160208.0,A,2420.0349,N,12409.5857,E,,,290423,,*0B
$GPGGA,160238.0,2420.0346,N,12409.5858,E,1,,,59.3,M,,M,,*56
$GPRMC,160238.0,A,2420.0346,N,12409.5858,E,,,290423,,*08
$GPGGA,160308.0,2420.0338,N,12409.5860,E,1,,,56.5,M,,M,,*5F
$GPRMC,160308.0,A,2420.0338,N,12409.5860,E,,,290423,,*08
$GPGGA,160338.0,2420.0341,N,12409.5859,E,1,,,37.6,M,,M,,*5C
$GPRMC,160338.0,A,2420.0341,N,12409.5859,E,,,290423,,*0F
$GPGGA,160408.0,2420.0347,N,12409.5857,E,1,,,24.6,M,,M,,*52
$GPRMC,160408.0,A,2420.0347,N,12409.5857,E,,,290423,,*03
$GPGGA,160438.0,2420.0350,N,12409.5854,E,1,,,27.5,M,,M,,*54
$GPRMC,160438.0,A,2420.0350,N,12409.5854,E,,,290423,,*05
$GPGGA,160508.0,2420.0348,N,12409.5849,E,1,,,42.8,M,,M,,*5D
$GPRMC,160508.0,A,2420.0348,N,12409.5849,E,,,290423,,*02
$GPGGA,160538.0,2420.0348,N,12409.5847,E,1,,,40.6,M,,M,,*5C
$GPRMC,160538.0,A,2420.0348,N,12409.5847,E,,,290423,,*0F
$GPGGA,160608.0,2420.0351,N,12409.5849,E,1,,,36.9,M,,M,,*54
$GPRMC,160608.0,A,2420.0351,N,12409.5849,E,,,290423,,*09
$GPGGA,160638.0,2420.0352,N,12409.5851,E,1,,,33.5,M,,M,,*54
$GPRMC,160638.0,A,2420.0352,N,12409.5851,E,,,290423,,*00
$GPGGA,160708.0,2420.0352,N,12409.5852,E,1,,,38.4,M,,M,,*5F
$GPRMC,160708.0,A,2420.0352,N,12409.5852,E,,,290423,,*01
$GPGGA,160738.0,2420.0349,N,12409.5849,E,1,,,57.7,M,,M,,*56
$GPRMC,160738.0,A,2420.0349,N,12409.5849,E,,,290423,,*02
$GPGGA,160808.0,2420.0347,N,12409.5849,E,1,,,53.2,M,,M,,*55
$GPRMC,160808.0,A,2420.0347,N,12409.5849,E,,,290423,,*00
$GPGGA,160838.0,2420.0346,N,12409.5848,E,1,,,45.9,M,,M,,*5A
$GPRMC,160838.0,A,2420.0346,N,12409.5848,E,,,290423,,*03
$GPGGA,160908.0,2420.0345,N,12409.5844,E,1,,,46.7,M,,M,,*5A
$GPRMC,160908.0,A,2420.0345,N,12409.5844,E,,,290423,,*0E
$GPGGA,160938.0,2420.0345,N,12409.5842,E,1,,,41.5,M,,M,,*5A
$GPRMC,160938.0,A,2420.0345,N,12409.5842,E,,,290423,,*0B
$GPGGA,161008.0,2420.0349,N,12409.5842,E,1,,,23.8,M,,M,,*54
$GPRMC,161008.0,A,2420.0349,N,12409.5842,E,,,290423,,*0C
$GPGGA,161038.0,2420.0354,N,12409.5842,E,1,,,17.2,M,,M,,*56
$GPRMC,161038.0,A,2420.0354,N,12409.5842,E,,,290423,,*03
$GPGGA,161108.0,2420.0357,N,12409.5841,E,1,,,17.1,M,,M,,*57
$GPRMC,161108.0,A,2420.0357,N,12409.5841,E,,,290423,,*01
$GPGGA,161138.0,2420.0356,N,12409.5839,E,1,,,31.1,M,,M,,*5E
$GPRMC,161138.0,A,2420.0356,N,12409.5839,E,,,290423,,*0C
$GPGGA,161208.0,2420.0357,N,12409.5839,E,1,,,28.0,M,,M,,*56
$GPRMC,161208.0,A,2420.0357,N,12409.5839,E,,,290423,,*0D
$GPGGA,161238.0,2420.0359,N,12409.5840,E,1,,,20.9,M,,M,,*54
$GPRMC,161238.0,A,2420.0359,N,12409.5840,E,,,290423,,*0E
$GPGGA,161308.0,2420.0364,N,12409.5842,E,1,,,20.1,M,,M,,*52
$GPRMC,161308.0,A,2420.0364,N,12409.5842,E,,,290423,,*00
$GPGGA,161338.0,2420.0367,N,12409.5845,E,1,,,25.8,M,,M,,*59
$GPRMC,161338.0,A,2420.0367,N,12409.5845,E,,,290423,,*07
$GPGGA,161408.0,2420.0356,N,12409.5843,E,1,,,38.7,M,,M,,*5A
$GPRMC,161408.0,A,2420.0356,N,12409.5843,E,,,290423,,*07
$GPGGA,161438.0,2420.0359,N,12409.5846,E,1,,,35.9,M,,M,,*50
$GPRMC,161438.0,A,2420.0359,N,12409.5846,E,,,290423,,*0E
$GPGGA,161508.0,2420.0359,N,12409.5847,E,1,,,24.7,M,,M,,*5D
$GPRMC,161508.0,A,2420.0359,N,12409.5847,E,,,290423,,*0D
$GPGGA,161538.0,2420.0367,N,12409.5851,E,1,,,22.5,M,,M,,*50
$GPRMC,161538.0,A,2420.0367,N,12409.5851,E,,,290423,,*04
$GPGGA,161608.0,2420.0367,N,12409.5853,E,1,,,20.6,M,,M,,*53
$GPRMC,161608.0,A,2420.0367,N,12409.5853,E,,,290423,,*06
$GPGGA,161638.0,2420.0365,N,12409.5849,E,1,,,32.2,M,,M,,*5E
$GPRMC,161638.0,A,2420.0365,N,12409.5849,E,,,290423,,*0C
$GPGGA,161708.0,2420.0368,N,12409.5845,E,1,,,19.6,M,,M,,*50
$GPRMC,161708.0,A,2420.0368,N,12409.5845,E,,,290423,,*0F
$GPGGA,161738.0,2420.0367,N,12409.5840,E,1,,,15.5,M,,M,,*56
$GPRMC,161738.0,A,2420.0367,N,12409.5840,E,,,290423,,*06
$GPGGA,161808.0,2420.0368,N,12409.5837,E,1,,,21.7,M,,M,,*50
$GPRMC,161808.0,A,2420.0368,N,12409.5837,E,,,290423,,*05
$GPGGA,161838.0,2420.0365,N,12409.5831,E,1,,,33.0,M,,M,,*5C
$GPRMC,161838.0,A,2420.0365,N,12409.5831,E,,,290423,,*0D
$GPGGA,161908.1,2420.0364,N,12409.5830,E,1,,,33.8,M,,M,,*57
$GPRMC,161908.1,A,2420.0364,N,12409.5830,E,,,290423,,*0E
$GPGGA,161938.0,2420.0365,N,12409.5834,E,1,,,20.9,M,,M,,*53
$GPRMC,161938.0,A,2420.0365,N,12409.5834,E,,,290423,,*09
$GPGGA,162008.0,2420.0366,N,12409.5837,E,1,,,23.0,M,,M,,*50
$GPRMC,162008.0,A,2420.0366,N,12409.5837,E,,,290423,,*00
$GPGGA,162038.0,2420.0364,N,12409.5836,E,1,,,30.2,M,,M,,*50
$GPRMC,162038.0,A,2420.0364,N,12409.5836,E,,,290423,,*00
$GPGGA,162108.0,2420.0362,N,12409.5837,E,1,,,36.2,M,,M,,*53
$GPRMC,162108.0,A,2420.0362,N,12409.5837,E,,,290423,,*05
$GPGGA,162138.0,2420.0364,N,12409.5842,E,1,,,20.2,M,,M,,*53
$GPRMC,162138.0,A,2420.0364,N,12409.5842,E,,,290423,,*02
$GPGGA,162208.0,2420.0364,N,12409.5847,E,1,,,22.7,M,,M,,*51
$GPRMC,162208.0,A,2420.0364,N,12409.5847,E,,,290423,,*07
$GPGGA,162238.0,2420.0363,N,12409.5848,E,1,,,27.8,M,,M,,*50
$GPRMC,162238.0,A,2420.0363,N,12409.5848,E,,,290423,,*0C
$GPGGA,162308.2,2420.0364,N,12409.5851,E,1,,,24.0,M,,M,,*54
$GPRMC,162308.2,A,2420.0364,N,12409.5851,E,,,290423,,*03
$GPGGA,162338.0,2420.0367,N,12409.5855,E,1,,,11.9,M,,M,,*5D
$GPRMC,162338.0,A,2420.0367,N,12409.5855,E,,,290423,,*05
$GPGGA,162408.0,2420.0369,N,12409.5856,E,1,,,13.7,M,,M,,*58
$GPRMC,162408.0,A,2420.0369,N,12409.5856,E,,,290423,,*0C
$GPGGA,162438.0,2420.0369,N,12409.5855,E,1,,,19.7,M,,M,,*52
$GPRMC,162438.0,A,2420.0369,N,12409.5855,E,,,290423,,*0C
$GPGGA,162508.0,2420.0371,N,12409.5857,E,1,,,16.3,M,,M,,*50
$GPRMC,162508.0,A,2420.0371,N,12409.5857,E,,,290423,,*05
$GPGGA,162538.0,2420.0373,N,12409.5858,E,1,,,14.5,M,,M,,*5A
$GPRMC,162538.0,A,2420.0373,N,12409.5858,E,,,290423,,*0B
$GPGGA,162608.0,2420.0369,N,12409.5855,E,1,,,32.7,M,,M,,*5A
$GPRMC,162608.0,A,2420.0369,N,12409.5855,E,,,290423,,*0D
$GPGGA,162638.0,2420.0366,N,12409.5857,E,1,,,32.2,M,,M,,*51
$GPRMC,162638.0,A,2420.0366,N,12409.5857,E,,,290423,,*03
$GPGGA,162708.0,2420.0377,N,12409.5894,E,1,,,13.8,M,,M,,*55
$GPRMC,162708.0,A,2420.0377,N,12409.5894,E,,,290423,,*0E
$GPGGA,162738.0,2420.0376,N,12409.5890,E,1,,,14.6,M,,M,,*5A
$GPRMC,162738.0,A,2420.0376,N,12409.5890,E,,,290423,,*08
$GPGGA,162808.0,2420.0375,N,12409.5884,E,1,,,23.4,M,,M,,*56
$GPRMC,162808.0,A,2420.0375,N,12409.5884,E,,,290423,,*02
$GPGGA,162838.0,2420.0380,N,12409.5886,E,1,,,30.3,M,,M,,*58
$GPRMC,162838.0,A,2420.0380,N,12409.5886,E,,,290423,,*09
$GPGGA,162908.0,2420.0380,N,12409.5884,E,1,,,40.7,M,,M,,*5B
$GPRMC,162908.0,A,2420.0380,N,12409.5884,E,,,290423,,*09
$GPGGA,162938.0,2420.0334,N,12409.5852,E,1,,,65.3,M,,M,,*5F
$GPRMC,162938.0,A,2420.0334,N,12409.5852,E,,,290423,,*0E
$GPGGA,163008.0,2420.0335,N,12409.5864,E,1,,,32.5,M,,M,,*54
$GPRMC,163008.0,A,2420.0335,N,12409.5864,E,,,290423,,*01
$GPGGA,163038.0,2420.0334,N,12409.5862,E,1,,,30.8,M,,M,,*5F
$GPRMC,163038.0,A,2420.0334,N,12409.5862,E,,,290423,,*05
$GPGGA,163108.0,2420.0335,N,12409.5864,E,1,,,15.6,M,,M,,*53
$GPRMC,163108.0,A,2420.0335,N,12409.5864,E,,,290423,,*00
$GPGGA,163138.0,2420.0334,N,12409.5868,E,1,,,21.0,M,,M,,*5C
$GPRMC,163138.0,A,2420.0334,N,12409.5868,E,,,290423,,*0E
$GPGGA,163208.0,2420.0331,N,12409.5868,E,1,,,41.1,M,,M,,*5E
$GPRMC,163208.0,A,2420.0331,N,12409.5868,E,,,290423,,*0B
$GPGGA,163238.0,2420.0331,N,12409.5866,E,1,,,43.2,M,,M,,*52
$GPRMC,163238.0,A,2420.0331,N,12409.5866,E,,,290423,,*06
$GPGGA,163308.0,2420.0325,N,12409.5862,E,1,,,37.7,M,,M,,*57
$GPRMC,163308.0,A,2420.0325,N,12409.5862,E,,,290423,,*05
$GPGGA,163338.0,2420.0325,N,12409.5862,E,1,,,34.8,M,,M,,*58
$GPRMC,163338.0,A,2420.0325,N,12409.5862,E,,,290423,,*06
$GPGGA,163408.0,2420.0327,N,12409.5861,E,1,,,33.0,M,,M,,*52
$GPRMC,163408.0,A,2420.0327,N,12409.5861,E,,,290423,,*03
$GPGGA,163438.0,2420.0328,N,12409.5862,E,1,,,30.3,M,,M,,*5D
$GPRMC,163438.0,A,2420.0328,N,12409.5862,E,,,290423,,*0C
$GPGGA,163508.0,2420.0337,N,12409.5876,E,1,,,25.1,M,,M,,*52
$GPRMC,163508.0,A,2420.0337,N,12409.5876,E,,,290423,,*05
$GPGGA,163538.0,2420.0333,N,12409.5885,E,1,,,21.5,M,,M,,*59
$GPRMC,163538.0,A,2420.0333,N,12409.5885,E,,,290423,,*0E
$GPGGA,163608.0,2420.0307,N,12409.5874,E,1,,,65.4,M,,M,,*51
$GPRMC,163608.0,A,2420.0307,N,12409.5874,E,,,290423,,*07
$GPGGA,163638.0,2420.0301,N,12409.5872,E,1,,,71.6,M,,M,,*55
$GPRMC,163638.0,A,2420.0301,N,12409.5872,E,,,290423,,*04
$GPGGA,163738.0,2420.0293,N,12409.5870,E,1,,,91.2,M,,M,,*56
$GPRMC,163738.0,A,2420.0293,N,12409.5870,E,,,290423,,*0D
$GPGGA,163808.0,2420.0203,N,12409.5824,E,1,,,102.2,M,,M,,*69
$GPRMC,163808.0,A,2420.0203,N,12409.5824,E,,,290423,,*09
$GPGGA,163838.0,2420.0202,N,12409.5824,E,1,,,106.2,M,,M,,*6F
$GPRMC,163838.0,A,2420.0202,N,12409.5824,E,,,290423,,*0B
$GPGGA,163908.0,2420.0206,N,12409.5827,E,1,,,97.3,M,,M,,*52
$GPRMC,163908.0,A,2420.0206,N,12409.5827,E,,,290423,,*0E
$GPGGA,163938.0,2420.0211,N,12409.5829,E,1,,,88.6,M,,M,,*52
$GPRMC,163938.0,A,2420.0211,N,12409.5829,E,,,290423,,*05
$GPGGA,164008.0,2420.0211,N,12409.5829,E,1,,,87.4,M,,M,,*52
$GPRMC,164008.0,A,2420.0211,N,12409.5829,E,,,290423,,*08
$GPGGA,164038.0,2420.0220,N,12409.5736,E,1,,,87.2,M,,M,,*54
$GPRMC,164038.0,A,2420.0220,N,12409.5736,E,,,290423,,*08
$GPGGA,164108.0,2420.0217,N,12409.5728,E,1,,,104.8,M,,M,,*6D
$GPRMC,164108.0,A,2420.0217,N,12409.5728,E,,,290423,,*01
$GPGGA,164138.0,2420.0217,N,12409.5730,E,1,,,97.3,M,,M,,*57
$GPRMC,164138.0,A,2420.0217,N,12409.5730,E,,,290423,,*0B
$GPGGA,164208.0,2420.0220,N,12409.5733,E,1,,,88.9,M,,M,,*54
$GPRMC,164208.0,A,2420.0220,N,12409.5733,E,,,290423,,*0C
$GPGGA,164238.0,2420.0217,N,12409.5733,E,1,,,82.2,M,,M,,*52
$GPRMC,164238.0,A,2420.0217,N,12409.5733,E,,,290423,,*0B
$GPGGA,164308.0,2420.0221,N,12409.5737,E,1,,,72.6,M,,M,,*5A
$GPRMC,164308.0,A,2420.0221,N,12409.5737,E,,,290423,,*08
$GPGGA,164338.0,2420.0222,N,12409.5741,E,1,,,71.7,M,,M,,*59
$GPRMC,164338.0,A,2420.0222,N,12409.5741,E,,,290423,,*09
$GPGGA,164408.0,2420.0227,N,12409.5745,E,1,,,72.8,M,,M,,*50
$GPRMC,164408.0,A,2420.0227,N,12409.5745,E,,,290423,,*0C
$GPGGA,164438.0,2420.0238,N,12409.5739,E,1,,,73.0,M,,M,,*5F
$GPRMC,164438.0,A,2420.0238,N,12409.5739,E,,,290423,,*0A
$GPGGA,164508.0,2420.0240,N,12409.5735,E,1,,,78.6,M,,M,,*53
$GPRMC,164508.0,A,2420.0240,N,12409.5735,E,,,290423,,*0B
$GPGGA,164538.0,2420.0239,N,12409.5735,E,1,,,81.7,M,,M,,*59
$GPRMC,164538.0,A,2420.0239,N,12409.5735,E,,,290423,,*06
$GPGGA,164608.0,2420.0238,N,12409.5736,E,1,,,83.8,M,,M,,*56
$GPRMC,164608.0,A,2420.0238,N,12409.5736,E,,,290423,,*04
$GPGGA,164638.8,2420.0238,N,12409.5723,E,1,,,88.6,M,,M,,*5C
$GPRMC,164638.8,A,2420.0238,N,12409.5723,E,,,290423,,*0B
$GPGGA,164708.0,2420.0223,N,12409.5718,E,1,,,101.4,M,,M,,*66
$GPRMC,164708.0,A,2420.0223,N,12409.5718,E,,,290423,,*03
$GPGGA,164738.0,2420.0225,N,12409.5720,E,1,,,100.7,M,,M,,*6A
$GPRMC,164738.0,A,2420.0225,N,12409.5720,E,,,290423,,*0D
$GPGGA,164808.0,2420.0221,N,12409.5732,E,1,,,103.0,M,,M,,*65
$GPRMC,164808.0,A,2420.0221,N,12409.5732,E,,,290423,,*06
$GPGGA,164838.0,2420.0233,N,12409.5740,E,1,,,88.7,M,,M,,*55
$GPRMC,164838.0,A,2420.0233,N,12409.5740,E,,,290423,,*03
$GPGGA,164908.0,2420.0249,N,12409.5753,E,1,,,74.7,M,,M,,*5B
$GPRMC,164908.0,A,2420.0249,N,12409.5753,E,,,290423,,*0E
$GPGGA,164938.0,2420.0249,N,12409.5754,E,1,,,74.4,M,,M,,*5C
$GPRMC,164938.0,A,2420.0249,N,12409.5754,E,,,290423,,*0A
$GPGGA,165008.0,2420.0250,N,12409.5755,E,1,,,71.8,M,,M,,*57
$GPRMC,165008.0,A,2420.0250,N,12409.5755,E,,,290423,,*08
$GPGGA,165038.0,2420.0250,N,12409.5755,E,1,,,70.7,M,,M,,*5A
$GPRMC,165038.0,A,2420.0250,N,12409.5755,E,,,290423,,*0B
$GPGGA,165108.0,2420.0250,N,12409.5755,E,1,,,70.4,M,,M,,*5B
$GPRMC,165108.0,A,2420.0250,N,12409.5755,E,,,290423,,*09
$GPGGA,165138.0,2420.0234,N,12409.5755,E,1,,,78.9,M,,M,,*5F
$GPRMC,165138.0,A,2420.0234,N,12409.5755,E,,,290423,,*08
$GPGGA,165208.0,2420.0233,N,12409.5759,E,1,,,83.0,M,,M,,*59
$GPRMC,165208.0,A,2420.0233,N,12409.5759,E,,,290423,,*03
$GPGGA,165238.0,2420.0232,N,12409.5759,E,1,,,88.6,M,,M,,*56
$GPRMC,165238.0,A,2420.0232,N,12409.5759,E,,,290423,,*01
$GPGGA,165308.0,2420.0230,N,12409.5759,E,1,,,88.3,M,,M,,*53
$GPRMC,165308.0,A,2420.0230,N,12409.5759,E,,,290423,,*01
$GPGGA,165338.0,2420.0239,N,12409.5748,E,1,,,86.9,M,,M,,*5D
$GPRMC,165338.0,A,2420.0239,N,12409.5748,E,,,290423,,*0B
$GPGGA,165408.0,2420.0220,N,12409.5740,E,1,,,89.1,M,,M,,*5E
$GPRMC,165408.0,A,2420.0220,N,12409.5740,E,,,290423,,*0F
$GPGGA,165438.0,2420.0219,N,12409.5740,E,1,,,86.7,M,,M,,*5E
$GPRMC,165438.0,A,2420.0219,N,12409.5740,E,,,290423,,*06
$GPGGA,165508.0,2420.0225,N,12409.5769,E,1,,,80.0,M,,M,,*59
$GPRMC,165508.0,A,2420.0225,N,12409.5769,E,,,290423,,*00
$GPGGA,165538.0,2420.0215,N,12409.5757,E,1,,,91.3,M,,M,,*57
$GPRMC,165538.0,A,2420.0215,N,12409.5757,E,,,290423,,*0D
$GPGGA,165608.0,2420.0217,N,12409.5727,E,1,,,100.9,M,,M,,*61
$GPRMC,165608.0,A,2420.0217,N,12409.5727,E,,,290423,,*08
$GPGGA,165638.0,2420.0216,N,12409.5731,E,1,,,104.2,M,,M,,*6B
$GPRMC,165638.0,A,2420.0216,N,12409.5731,E,,,290423,,*0D
$GPGGA,165708.0,2420.0217,N,12409.5726,E,1,,,103.0,M,,M,,*6B
$GPRMC,165708.0,A,2420.0217,N,12409.5726,E,,,290423,,*08
$GPGGA,165738.0,2420.0218,N,12409.5725,E,1,,,102.8,M,,M,,*6D
$GPRMC,165738.0,A,2420.0218,N,12409.5725,E,,,290423,,*07
$GPGGA,165808.0,2420.0217,N,12409.5726,E,1,,,100.4,M,,M,,*63
$GPRMC,165808.0,A,2420.0217,N,12409.5726,E,,,290423,,*07
$GPGGA,165838.0,2420.0219,N,12409.5726,E,1,,,96.9,M,,M,,*5D
$GPRMC,165838.0,A,2420.0219,N,12409.5726,E,,,290423,,*0A
$GPGGA,165908.0,2420.0219,N,12409.5726,E,1,,,93.9,M,,M,,*5A
$GPRMC,165908.0,A,2420.0219,N,12409.5726,E,,,290423,,*08
$GPGGA,165938.0,2420.0220,N,12409.5727,E,1,,,92.0,M,,M,,*5A
$GPRMC,165938.0,A,2420.0220,N,12409.5727,E,,,290423,,*00
$GPGGA,170008.1,2420.0229,N,12409.5728,E,1,,,88.8,M,,M,,*50
$GPRMC,170008.1,A,2420.0229,N,12409.5728,E,,,290423,,*09
$GPGGA,170038.3,2420.0229,N,12409.5728,E,1,,,88.0,M,,M,,*59
$GPRMC,170038.3,A,2420.0229,N,12409.5728,E,,,290423,,*08
$GPGGA,170108.1,2420.0232,N,12409.5731,E,1,,,88.5,M,,M,,*5E
$GPRMC,170108.1,A,2420.0232,N,12409.5731,E,,,290423,,*0A
$GPGGA,170138.0,2420.0232,N,12409.5731,E,1,,,88.3,M,,M,,*5A
$GPRMC,170138.0,A,2420.0232,N,12409.5731,E,,,290423,,*08
$GPGGA,170208.0,2420.0233,N,12409.5731,E,1,,,88.1,M,,M,,*59
$GPRMC,170208.0,A,2420.0233,N,12409.5731,E,,,290423,,*09
$GPGGA,170238.0,2420.0234,N,12409.5733,E,1,,,86.8,M,,M,,*58
$GPRMC,170238.0,A,2420.0234,N,12409.5733,E,,,290423,,*0F
$GPGGA,170308.0,2420.0234,N,12409.5734,E,1,,,86.2,M,,M,,*57
$GPRMC,170308.0,A,2420.0234,N,12409.5734,E,,,290423,,*0A
$GPGGA,170338.0,2420.0234,N,12409.5735,E,1,,,85.0,M,,M,,*54
$GPRMC,170338.0,A,2420.0234,N,12409.5735,E,,,290423,,*08
$GPGGA,170408.0,2420.0234,N,12409.5735,E,1,,,84.5,M,,M,,*54
$GPRMC,170408.0,A,2420.0234,N,12409.5735,E,,,290423,,*0C
$GPGGA,170438.0,2420.0238,N,12409.5742,E,1,,,81.3,M,,M,,*58
$GPRMC,170438.0,A,2420.0238,N,12409.5742,E,,,290423,,*03
$GPGGA,170508.0,2420.0239,N,12409.5743,E,1,,,77.2,M,,M,,*52
$GPRMC,170508.0,A,2420.0239,N,12409.5743,E,,,290423,,*01
$GPGGA,170538.0,2420.0231,N,12409.5742,E,1,,,78.5,M,,M,,*50
$GPRMC,170538.0,A,2420.0231,N,12409.5742,E,,,290423,,*0B
$GPGGA,170608.0,2420.0231,N,12409.5742,E,1,,,75.6,M,,M,,*5E
$GPRMC,170608.0,A,2420.0231,N,12409.5742,E,,,290423,,*0B
$GPGGA,170638.0,2420.0232,N,12409.5742,E,1,,,72.6,M,,M,,*59
$GPRMC,170638.0,A,2420.0232,N,12409.5742,E,,,290423,,*0B
$GPGGA,170708.0,2420.0233,N,12409.5744,E,1,,,69.5,M,,M,,*55
$GPRMC,170708.0,A,2420.0233,N,12409.5744,E,,,290423,,*0E
$GPGGA,170738.0,2420.0235,N,12409.5745,E,1,,,67.3,M,,M,,*59
$GPRMC,170738.0,A,2420.0235,N,12409.5745,E,,,290423,,*0A
$GPGGA,170808.0,2420.0236,N,12409.5745,E,1,,,65.9,M,,M,,*5E
$GPRMC,170808.0,A,2420.0236,N,12409.5745,E,,,290423,,*05
$GPGGA,170838.0,2420.0237,N,12409.5746,E,1,,,65.4,M,,M,,*52
$GPRMC,170838.0,A,2420.0237,N,12409.5746,E,,,290423,,*04
$GPGGA,170908.0,2420.0232,N,12409.5727,E,1,,,71.7,M,,M,,*54
$GPRMC,170908.0,A,2420.0232,N,12409.5727,E,,,290423,,*04
$GPGGA,170938.0,2420.0234,N,12409.5724,E,1,,,79.8,M,,M,,*55
$GPRMC,170938.0,A,2420.0234,N,12409.5724,E,,,290423,,*02
$GPGGA,171008.0,2420.0235,N,12409.5724,E,1,,,77.0,M,,M,,*59
$GPRMC,171008.0,A,2420.0235,N,12409.5724,E,,,290423,,*08
$GPGGA,171038.0,2420.0236,N,12409.5724,E,1,,,78.2,M,,M,,*54
$GPRMC,171038.0,A,2420.0236,N,12409.5724,E,,,290423,,*08
$GPGGA,171108.0,2420.0236,N,12409.5722,E,1,,,82.8,M,,M,,*5F
$GPRMC,171108.0,A,2420.0236,N,12409.5722,E,,,290423,,*0C
$GPGGA,171138.0,2420.0236,N,12409.5720,E,1,,,84.4,M,,M,,*54
$GPRMC,171138.0,A,2420.0236,N,12409.5720,E,,,290423,,*0D
$GPGGA,171208.0,2420.0239,N,12409.5730,E,1,,,84.4,M,,M,,*5A
$GPRMC,171208.0,A,2420.0239,N,12409.5730,E,,,290423,,*03
$GPGGA,171238.0,2420.0239,N,12409.5730,E,1,,,84.9,M,,M,,*54
$GPRMC,171238.0,A,2420.0239,N,12409.5730,E,,,290423,,*00
$GPGGA,171308.0,2420.0238,N,12409.5730,E,1,,,85.2,M,,M,,*5D
$GPRMC,171308.0,A,2420.0238,N,12409.5730,E,,,290423,,*03
$GPGGA,171338.0,2420.0238,N,12409.5730,E,1,,,85.1,M,,M,,*5D
$GPRMC,171338.0,A,2420.0238,N,12409.5730,E,,,290423,,*00
$GPGGA,171408.0,2420.0237,N,12409.5729,E,1,,,86.2,M,,M,,*5E
$GPRMC,171408.0,A,2420.0237,N,12409.5729,E,,,290423,,*03
$GPGGA,171438.0,2420.0236,N,12409.5728,E,1,,,87.2,M,,M,,*5C
$GPRMC,171438.0,A,2420.0236,N,12409.5728,E,,,290423,,*00
$GPGGA,171508.0,2420.0237,N,12409.5729,E,1,,,86.3,M,,M,,*5E
$GPRMC,171508.0,A,2420.0237,N,12409.5729,E,,,290423,,*02
$GPGGA,171538.0,2420.0239,N,12409.5729,E,1,,,85.1,M,,M,,*52
$GPRMC,171538.0,A,2420.0239,N,12409.5729,E,,,290423,,*0F
$GPGGA,171608.0,2420.0242,N,12409.5734,E,1,,,83.6,M,,M,,*53
$GPRMC,171608.0,A,2420.0242,N,12409.5734,E,,,290423,,*0F
$GPGGA,171638.0,2420.0251,N,12409.5733,E,1,,,83.0,M,,M,,*53
$GPRMC,171638.0,A,2420.0251,N,12409.5733,E,,,290423,,*09
$GPGGA,171708.0,2420.0274,N,12409.5680,E,1,,,82.8,M,,M,,*56
$GPRMC,171708.0,A,2420.0274,N,12409.5680,E,,,290423,,*05
$GPGGA,171738.0,2420.0284,N,12409.5659,E,1,,,82.8,M,,M,,*5E
$GPRMC,171738.0,A,2420.0284,N,12409.5659,E,,,290423,,*0D
$GPGGA,171808.0,2420.0298,N,12409.5618,E,1,,,82.8,M,,M,,*5A
$GPRMC,171808.0,A,2420.0298,N,12409.5618,E,,,290423,,*09
$GPGGA,171838.0,2420.0302,N,12409.5610,E,1,,,82.8,M,,M,,*53
$GPRMC,171838.0,A,2420.0302,N,12409.5610,E,,,290423,,*00
$GPGGA,171908.0,2420.0305,N,12409.5613,E,1,,,82.6,M,,M,,*5B
$GPRMC,171908.0,A,2420.0305,N,12409.5613,E,,,290423,,*06
$GPGGA,171938.0,2420.0303,N,12409.5612,E,1,,,82.6,M,,M,,*5F
$GPRMC,171938.0,A,2420.0303,N,12409.5612,E,,,290423,,*02
$GPGGA,172008.0,2420.0302,N,12409.5610,E,1,,,82.6,M,,M,,*55
$GPRMC,172008.0,A,2420.0302,N,12409.5610,E,,,290423,,*08
$GPGGA,172038.0,2420.0323,N,12409.5640,E,1,,,81.4,M,,M,,*51
$GPRMC,172038.0,A,2420.0323,N,12409.5640,E,,,290423,,*0D
$GPGGA,172108.0,2420.0288,N,12409.5712,E,1,,,58.2,M,,M,,*57
$GPRMC,172108.0,A,2420.0288,N,12409.5712,E,,,290423,,*09
$GPGGA,172138.0,2420.0287,N,12409.5713,E,1,,,57.5,M,,M,,*52
$GPRMC,172138.0,A,2420.0287,N,12409.5713,E,,,290423,,*04
$GPGGA,172208.1,2420.0287,N,12409.5715,E,1,,,55.3,M,,M,,*51
$GPRMC,172208.1,A,2420.0287,N,12409.5715,E,,,290423,,*03
$GPGGA,172238.4,2420.0288,N,12409.5717,E,1,,,53.7,M,,M,,*58
$GPRMC,172238.4,A,2420.0288,N,12409.5717,E,,,290423,,*08
$GPGGA,172308.0,2420.0289,N,12409.5718,E,1,,,51.9,M,,M,,*5C
$GPRMC,172308.0,A,2420.0289,N,12409.5718,E,,,290423,,*00
$GPGGA,172338.0,2420.0289,N,12409.5720,E,1,,,50.3,M,,M,,*5F
$GPRMC,172338.0,A,2420.0289,N,12409.5720,E,,,290423,,*08
$GPGGA,172408.0,2420.0297,N,12409.5731,E,1,,,47.7,M,,M,,*56
$GPRMC,172408.0,A,2420.0297,N,12409.5731,E,,,290423,,*03
$GPGGA,172438.0,2420.0292,N,12409.5728,E,1,,,49.2,M,,M,,*53
$GPRMC,172438.0,A,2420.0292,N,12409.5728,E,,,290423,,*0D
$GPGGA,172508.0,2420.0292,N,12409.5729,E,1,,,49.3,M,,M,,*51
$GPRMC,172508.0,A,2420.0292,N,12409.5729,E,,,290423,,*0E
$GPGGA,172538.0,2420.0292,N,12409.5730,E,1,,,49.2,M,,M,,*5B
$GPRMC,172538.0,A,2420.0292,N,12409.5730,E,,,290423,,*05
$GPGGA,172608.0,2420.0292,N,12409.5730,E,1,,,48.9,M,,M,,*51
$GPRMC,172608.0,A,2420.0292,N,12409.5730,E,,,290423,,*05
$GPGGA,172638.0,2420.0292,N,12409.5731,E,1,,,48.5,M,,M,,*5F
$GPRMC,172638.0,A,2420.0292,N,12409.5731,E,,,290423,,*07
$GPGGA,172708.0,2420.0294,N,12409.5737,E,1,,,48.7,M,,M,,*5F
$GPRMC,172708.0,A,2420.0294,N,12409.5737,E,,,290423,,*05
$GPGGA,172738.0,2420.0294,N,12409.5738,E,1,,,48.5,M,,M,,*51
$GPRMC,172738.0,A,2420.0294,N,12409.5738,E,,,290423,,*09
$GPGGA,172808.0,2420.0297,N,12409.5743,E,1,,,49.0,M,,M,,*56
$GPRMC,172808.0,A,2420.0297,N,12409.5743,E,,,290423,,*0A
$GPGGA,172838.0,2420.0294,N,12409.5749,E,1,,,41.8,M,,M,,*5C
$GPRMC,172838.0,A,2420.0294,N,12409.5749,E,,,290423,,*00
$GPGGA,172908.0,2420.0284,N,12409.5765,E,1,,,37.0,M,,M,,*58
$GPRMC,172908.0,A,2420.0284,N,12409.5765,E,,,290423,,*0D
$GPGGA,172938.0,2420.0267,N,12409.5833,E,1,,,34.5,M,,M,,*5C
$GPRMC,172938.0,A,2420.0267,N,12409.5833,E,,,290423,,*0F
$GPGGA,173008.0,2420.0264,N,12409.5843,E,1,,,36.7,M,,M,,*53
$GPRMC,173008.0,A,2420.0264,N,12409.5843,E,,,290423,,*00
$GPGGA,173038.0,2420.0264,N,12409.5846,E,1,,,37.8,M,,M,,*5B
$GPRMC,173038.0,A,2420.0264,N,12409.5846,E,,,290423,,*06
$GPGGA,173108.2,2420.0265,N,12409.5849,E,1,,,37.0,M,,M,,*5D
$GPRMC,173108.2,A,2420.0265,N,12409.5849,E,,,290423,,*08
$GPGGA,173138.0,2420.0265,N,12409.5853,E,1,,,32.3,M,,M,,*51
$GPRMC,173138.0,A,2420.0265,N,12409.5853,E,,,290423,,*02
$GPGGA,173208.0,2420.0357,N,12409.5810,E,1,,,53.1,M,,M,,*53
$GPRMC,173208.0,A,2420.0357,N,12409.5810,E,,,290423,,*05
$GPGGA,173238.0,2420.0360,N,12409.5807,E,1,,,56.0,M,,M,,*56
$GPRMC,173238.0,A,2420.0360,N,12409.5807,E,,,290423,,*04
$GPGGA,173308.0,2420.0361,N,12409.5810,E,1,,,54.7,M,,M,,*56
$GPRMC,173308.0,A,2420.0361,N,12409.5810,E,,,290423,,*01
$GPGGA,173338.0,2420.0361,N,12409.5810,E,1,,,53.0,M,,M,,*55
$GPRMC,173338.0,A,2420.0361,N,12409.5810,E,,,290423,,*02
$GPGGA,173408.0,2420.0356,N,12409.5818,E,1,,,50.6,M,,M,,*58
$GPRMC,173408.0,A,2420.0356,N,12409.5818,E,,,290423,,*0A
$GPGGA,173438.0,2420.0357,N,12409.5817,E,1,,,47.8,M,,M,,*5D
$GPRMC,173438.0,A,2420.0357,N,12409.5817,E,,,290423,,*07
$GPGGA,173508.0,2420.0357,N,12409.5817,E,1,,,47.1,M,,M,,*56
$GPRMC,173508.0,A,2420.0357,N,12409.5817,E,,,290423,,*05
$GPGGA,173538.0,2420.0357,N,12409.5819,E,1,,,45.0,M,,M,,*58
$GPRMC,173538.0,A,2420.0357,N,12409.5819,E,,,290423,,*08
$GPGGA,173608.0,2420.0365,N,12409.5803,E,1,,,38.0,M,,M,,*58
$GPRMC,173608.0,A,2420.0365,N,12409.5803,E,,,290423,,*02
$GPGGA,173638.0,2420.0364,N,12409.5803,E,1,,,36.7,M,,M,,*53
$GPRMC,173638.0,A,2420.0364,N,12409.5803,E,,,290423,,*00
$GPGGA,173708.0,2420.0352,N,12409.5814,E,1,,,34.9,M,,M,,*5E
$GPRMC,173708.0,A,2420.0352,N,12409.5814,E,,,290423,,*01
$GPGGA,173738.0,2420.0352,N,12409.5814,E,1,,,34.3,M,,M,,*57
$GPRMC,173738.0,A,2420.0352,N,12409.5814,E,,,290423,,*02
$GPGGA,173808.0,2420.0352,N,12409.5814,E,1,,,34.1,M,,M,,*59
$GPRMC,173808.0,A,2420.0352,N,12409.5814,E,,,290423,,*0E
$GPGGA,173838.0,2420.0352,N,12409.5815,E,1,,,33.2,M,,M,,*5F
$GPRMC,173838.0,A,2420.0352,N,12409.5815,E,,,290423,,*0C
$GPGGA,173908.0,2420.0351,N,12409.5815,E,1,,,34.5,M,,M,,*5E
$GPRMC,173908.0,A,2420.0351,N,12409.5815,E,,,290423,,*0D
$GPGGA,173938.0,2420.0350,N,12409.5814,E,1,,,34.6,M,,M,,*5E
$GPRMC,173938.0,A,2420.0350,N,12409.5814,E,,,290423,,*0E
$GPGGA,174008.0,2420.0350,N,12409.5813,E,1,,,34.8,M,,M,,*5A
$GPRMC,174008.0,A,2420.0350,N,12409.5813,E,,,290423,,*04
$GPGGA,174038.0,2420.0350,N,12409.5813,E,1,,,34.9,M,,M,,*58
$GPRMC,174038.0,A,2420.0350,N,12409.5813,E,,,290423,,*07
$GPGGA,174108.0,2420.0349,N,12409.5814,E,1,,,34.5,M,,M,,*59
$GPRMC,174108.0,A,2420.0349,N,12409.5814,E,,,290423,,*0A
$GPGGA,174138.0,2420.0349,N,12409.5815,E,1,,,33.1,M,,M,,*58
$GPRMC,174138.0,A,2420.0349,N,12409.5815,E,,,290423,,*08
$GPGGA,174208.0,2420.0349,N,12409.5815,E,1,,,32.6,M,,M,,*5E
$GPRMC,174208.0,A,2420.0349,N,12409.5815,E,,,290423,,*08
$GPGGA,174238.0,2420.0349,N,12409.5815,E,1,,,32.2,M,,M,,*59
$GPRMC,174238.0,A,2420.0349,N,12409.5815,E,,,290423,,*0B
$GPGGA,174308.0,2420.0349,N,12409.5816,E,1,,,31.7,M,,M,,*5E
$GPRMC,174308.0,A,2420.0349,N,12409.5816,E,,,290423,,*0A
$GPGGA,174338.0,2420.0349,N,12409.5817,E,1,,,31.3,M,,M,,*58
$GPRMC,174338.0,A,2420.0349,N,12409.5817,E,,,290423,,*08
$GPGGA,174408.0,2420.0348,N,12409.5816,E,1,,,32.6,M,,M,,*5A
$GPRMC,174408.0,A,2420.0348,N,12409.5816,E,,,290423,,*0C
$GPGGA,174438.0,2420.0347,N,12409.5815,E,1,,,34.5,M,,M,,*50
$GPRMC,174438.0,A,2420.0347,N,12409.5815,E,,,290423,,*03
$GPGGA,174508.0,2420.0347,N,12409.5815,E,1,,,35.2,M,,M,,*54
$GPRMC,174508.0,A,2420.0347,N,12409.5815,E,,,290423,,*01
$GPGGA,174538.0,2420.0352,N,12409.5822,E,1,,,33.7,M,,M,,*54
$GPRMC,174538.0,A,2420.0352,N,12409.5822,E,,,290423,,*02
$GPGGA,174608.0,2420.0352,N,12409.5822,E,1,,,33.4,M,,M,,*57
$GPRMC,174608.0,A,2420.0352,N,12409.5822,E,,,290423,,*02
$GPGGA,174638.0,2420.0352,N,12409.5823,E,1,,,32.8,M,,M,,*58
$GPRMC,174638.0,A,2420.0352,N,12409.5823,E,,,290423,,*00
$GPGGA,174708.0,2420.0351,N,12409.5823,E,1,,,32.5,M,,M,,*54
$GPRMC,174708.0,A,2420.0351,N,12409.5823,E,,,290423,,*01
$GPGGA,174738.0,2420.0351,N,12409.5824,E,1,,,32.4,M,,M,,*51
$GPRMC,174738.0,A,2420.0351,N,12409.5824,E,,,290423,,*05
$GPGGA,174808.0,2420.0351,N,12409.5825,E,1,,,32.2,M,,M,,*5A
$GPRMC,174808.0,A,2420.0351,N,12409.5825,E,,,290423,,*08
$GPGGA,174838.0,2420.0351,N,12409.5825,E,1,,,31.9,M,,M,,*51
$GPRMC,174838.0,A,2420.0351,N,12409.5825,E,,,290423,,*0B
$GPGGA,174908.0,2420.0351,N,12409.5825,E,1,,,31.9,M,,M,,*53
$GPRMC,174908.0,A,2420.0351,N,12409.5825,E,,,290423,,*09
$GPGGA,174938.0,2420.0351,N,12409.5826,E,1,,,31.8,M,,M,,*52
$GPRMC,174938.0,A,2420.0351,N,12409.5826,E,,,290423,,*09
$GPGGA,175008.0,2420.0360,N,12409.5837,E,1,,,29.2,M,,M,,*58
$GPRMC,175008.0,A,2420.0360,N,12409.5837,E,,,290423,,*00
$GPGGA,175038.0,2420.0363,N,12409.5841,E,1,,,27.9,M,,M,,*5C
$GPRMC,175038.0,A,2420.0363,N,12409.5841,E,,,290423,,*01
$GPGGA,175108.3,2420.0363,N,12409.5841,E,1,,,28.2,M,,M,,*59
$GPRMC,175108.3,A,2420.0363,N,12409.5841,E,,,290423,,*00
$GPGGA,175138.0,2420.0362,N,12409.5841,E,1,,,28.4,M,,M,,*5E
$GPRMC,175138.0,A,2420.0362,N,12409.5841,E,,,290423,,*01
$GPGGA,175208.0,2420.0350,N,12409.5836,E,1,,,30.0,M,,M,,*52
$GPRMC,175208.0,A,2420.0350,N,12409.5836,E,,,290423,,*00
$GPGGA,175238.0,2420.0350,N,12409.5836,E,1,,,29.1,M,,M,,*58
$GPRMC,175238.0,A,2420.0350,N,12409.5836,E,,,290423,,*03
$GPGGA,175308.0,2420.0350,N,12409.5837,E,1,,,29.0,M,,M,,*5A
$GPRMC,175308.0,A,2420.0350,N,12409.5837,E,,,290423,,*00
$GPGGA,175338.0,2420.0349,N,12409.5837,E,1,,,28.9,M,,M,,*59
$GPRMC,175338.0,A,2420.0349,N,12409.5837,E,,,290423,,*0B
$GPGGA,175408.0,2420.0358,N,12409.5848,E,1,,,25.0,M,,M,,*51
$GPRMC,175408.0,A,2420.0358,N,12409.5848,E,,,290423,,*07
$GPGGA,175438.0,2420.0389,N,12409.5883,E,1,,,16.9,M,,M,,*50
$GPRMC,175438.0,A,2420.0389,N,12409.5883,E,,,290423,,*0F
$GPGGA,175508.0,2420.0388,N,12409.5884,E,1,,,17.2,M,,M,,*5E
$GPRMC,175508.0,A,2420.0388,N,12409.5884,E,,,290423,,*0B
$GPGGA,175538.0,2420.0387,N,12409.5883,E,1,,,18.8,M,,M,,*50
$GPRMC,175538.0,A,2420.0387,N,12409.5883,E,,,290423,,*00
$GPGGA,175608.0,2420.0386,N,12409.5883,E,1,,,20.4,M,,M,,*56
$GPRMC,175608.0,A,2420.0386,N,12409.5883,E,,,290423,,*01
$GPGGA,175638.0,2420.0385,N,12409.5883,E,1,,,21.7,M,,M,,*54
$GPRMC,175638.0,A,2420.0385,N,12409.5883,E,,,290423,,*01
$GPGGA,175708.0,2420.0383,N,12409.5889,E,1,,,19.9,M,,M,,*5F
$GPRMC,175708.0,A,2420.0383,N,12409.5889,E,,,290423,,*0F
$GPGGA,175738.0,2420.0382,N,12409.5889,E,1,,,19.1,M,,M,,*55
$GPRMC,175738.0,A,2420.0382,N,12409.5889,E,,,290423,,*0D
$GPGGA,175808.0,2420.0380,N,12409.5889,E,1,,,19.3,M,,M,,*59
$GPRMC,175808.0,A,2420.0380,N,12409.5889,E,,,290423,,*03
$GPGGA,175838.0,2420.0367,N,12409.5886,E,1,,,20.9,M,,M,,*5C
$GPRMC,175838.0,A,2420.0367,N,12409.5886,E,,,290423,,*06
$GPGGA,175908.0,2420.0367,N,12409.5885,E,1,,,22.2,M,,M,,*54
$GPRMC,175908.0,A,2420.0367,N,12409.5885,E,,,290423,,*07
$GPGGA,175938.0,2420.0366,N,12409.5885,E,1,,,22.2,M,,M,,*56
$GPRMC,175938.0,A,2420.0366,N,12409.5885,E,,,290423,,*05
$GPGGA,180008.0,2420.0366,N,12409.5885,E,1,,,22.4,M,,M,,*50
$GPRMC,180008.0,A,2420.0366,N,12409.5885,E,,,290423,,*05
$GPGGA,180038.1,2420.0365,N,12409.5885,E,1,,,22.0,M,,M,,*55
$GPRMC,180038.1,A,2420.0365,N,12409.5885,E,,,290423,,*04
$GPGGA,180108.0,2420.0364,N,12409.5884,E,1,,,21.9,M,,M,,*5C
$GPRMC,180108.0,A,2420.0364,N,12409.5884,E,,,290423,,*07
$GPGGA,180138.0,2420.0361,N,12409.5883,E,1,,,22.7,M,,M,,*50
$GPRMC,180138.0,A,2420.0361,N,12409.5883,E,,,290423,,*06
$GPGGA,180208.0,2420.0357,N,12409.5874,E,1,,,25.8,M,,M,,*55
$GPRMC,180208.0,A,2420.0357,N,12409.5874,E,,,290423,,*0B
$GPGGA,180238.0,2420.0356,N,12409.5873,E,1,,,26.1,M,,M,,*5A
$GPRMC,180238.0,A,2420.0356,N,12409.5873,E,,,290423,,*0E
$GPGGA,180308.0,2420.0355,N,12409.5871,E,1,,,26.5,M,,M,,*5D
$GPRMC,180308.0,A,2420.0355,N,12409.5871,E,,,290423,,*0D
$GPGGA,180338.0,2420.0354,N,12409.5869,E,1,,,26.7,M,,M,,*54
$GPRMC,180338.0,A,2420.0354,N,12409.5869,E,,,290423,,*06
$GPGGA,180408.1,2420.0353,N,12409.5867,E,1,,,26.7,M,,M,,*58
$GPRMC,180408.1,A,2420.0353,N,12409.5867,E,,,290423,,*0A
$GPGGA,180438.0,2420.0352,N,12409.5866,E,1,,,26.9,M,,M,,*54
$GPRMC,180438.0,A,2420.0352,N,12409.5866,E,,,290423,,*08
$GPGGA,180508.0,2420.0350,N,12409.5849,E,1,,,26.2,M,,M,,*52
$GPRMC,180508.0,A,2420.0350,N,12409.5849,E,,,290423,,*05
$GPGGA,180538.0,2420.0350,N,12409.5846,E,1,,,26.5,M,,M,,*59
$GPRMC,180538.0,A,2420.0350,N,12409.5846,E,,,290423,,*09
$GPGGA,180608.0,2420.0349,N,12409.5841,E,1,,,26.3,M,,M,,*50
$GPRMC,180608.0,A,2420.0349,N,12409.5841,E,,,290423,,*06
$GPGGA,180638.0,2420.0349,N,12409.5839,E,1,,,26.8,M,,M,,*57
$GPRMC,180638.0,A,2420.0349,N,12409.5839,E,,,290423,,*0A
$GPGGA,180708.0,2420.0349,N,12409.5838,E,1,,,26.4,M,,M,,*58
$GPRMC,180708.0,A,2420.0349,N,12409.5838,E,,,290423,,*09
$GPGGA,180738.0,2420.0349,N,12409.5834,E,1,,,25.6,M,,M,,*56
$GPRMC,180738.0,A,2420.0349,N,12409.5834,E,,,290423,,*06
$GPGGA,180808.0,2420.0349,N,12409.5832,E,1,,,25.7,M,,M,,*5D
$GPRMC,180808.0,A,2420.0349,N,12409.5832,E,,,290423,,*0C
$GPGGA,180838.0,2420.0349,N,12409.5833,E,1,,,24.2,M,,M,,*5B
$GPRMC,180838.0,A,2420.0349,N,12409.5833,E,,,290423,,*0E
$GPGGA,180908.0,2420.0349,N,12409.5833,E,1,,,23.3,M,,M,,*5F
$GPRMC,180908.0,A,2420.0349,N,12409.5833,E,,,290423,,*0C
$GPGGA,180938.0,2420.0349,N,12409.5832,E,1,,,22.5,M,,M,,*5A
$GPRMC,180938.0,A,2420.0349,N,12409.5832,E,,,290423,,*0E
$GPGGA,181008.0,2420.0350,N,12409.5831,E,1,,,21.8,M,,M,,*54
$GPRMC,181008.0,A,2420.0350,N,12409.5831,E,,,290423,,*0E
$GPGGA,181038.0,2420.0349,N,12409.5832,E,1,,,21.4,M,,M,,*50
$GPRMC,181038.0,A,2420.0349,N,12409.5832,E,,,290423,,*06
$GPGGA,181108.0,2420.0349,N,12409.5831,E,1,,,21.0,M,,M,,*55
$GPRMC,181108.0,A,2420.0349,N,12409.5831,E,,,290423,,*07
$GPGGA,181138.0,2420.0350,N,12409.5831,E,1,,,20.2,M,,M,,*5D
$GPRMC,181138.0,A,2420.0350,N,12409.5831,E,,,290423,,*0C
$GPGGA,181208.0,2420.0350,N,12409.5831,E,1,,,19.8,M,,M,,*5D
$GPRMC,181208.0,A,2420.0350,N,12409.5831,E,,,290423,,*0C
$GPGGA,181238.0,2420.0350,N,12409.5831,E,1,,,19.8,M,,M,,*5E
$GPRMC,181238.0,A,2420.0350,N,12409.5831,E,,,290423,,*0F
$GPGGA,181308.0,2420.0350,N,12409.5832,E,1,,,20.0,M,,M,,*5D
$GPRMC,181308.0,A,2420.0350,N,12409.5832,E,,,290423,,*0E
$GPGGA,181338.0,2420.0350,N,12409.5831,E,1,,,20.2,M,,M,,*5F
$GPRMC,181338.0,A,2420.0350,N,12409.5831,E,,,290423,,*0E
$GPGGA,181408.0,2420.0365,N,12409.5768,E,1,,,13.8,M,,M,,*54
$GPRMC,181408.0,A,2420.0365,N,12409.5768,E,,,290423,,*0F
$GPGGA,181438.0,2420.0365,N,12409.5768,E,1,,,10.4,M,,M,,*58
$GPRMC,181438.0,A,2420.0365,N,12409.5768,E,,,290423,,*0C
$GPGGA,181508.0,2420.0364,N,12409.5769,E,1,,,10.5,M,,M,,*5B
$GPRMC,181508.0,A,2420.0364,N,12409.5769,E,,,290423,,*0E
$GPGGA,181538.0,2420.0364,N,12409.5771,E,1,,,11.6,M,,M,,*53
$GPRMC,181538.0,A,2420.0364,N,12409.5771,E,,,290423,,*04
$GPGGA,181608.0,2420.0364,N,12409.5773,E,1,,,13.2,M,,M,,*57
$GPRMC,181608.0,A,2420.0364,N,12409.5773,E,,,290423,,*06
$GPGGA,181638.4,2420.0364,N,12409.5774,E,1,,,12.5,M,,M,,*51
$GPRMC,181638.4,A,2420.0364,N,12409.5774,E,,,290423,,*06
$GPGGA,181708.0,2420.0363,N,12409.5774,E,1,,,15.0,M,,M,,*52
$GPRMC,181708.0,A,2420.0363,N,12409.5774,E,,,290423,,*07
$GPGGA,181738.0,2420.0363,N,12409.5775,E,1,,,15.8,M,,M,,*58
$GPRMC,181738.0,A,2420.0363,N,12409.5775,E,,,290423,,*05
$GPGGA,181808.0,2420.0364,N,12409.5776,E,1,,,15.5,M,,M,,*5D
$GPRMC,181808.0,A,2420.0364,N,12409.5776,E,,,290423,,*0D
$GPGGA,181838.0,2420.0363,N,12409.5776,E,1,,,16.7,M,,M,,*58
$GPRMC,181838.0,A,2420.0363,N,12409.5776,E,,,290423,,*09
$GPGGA,181908.0,2420.0364,N,12409.5778,E,1,,,17.0,M,,M,,*55
$GPRMC,181908.0,A,2420.0364,N,12409.5778,E,,,290423,,*02
$GPGGA,181938.0,2420.0362,N,12409.5778,E,1,,,16.9,M,,M,,*58
$GPRMC,181938.0,A,2420.0362,N,12409.5778,E,,,290423,,*07
$GPGGA,182008.0,2420.0363,N,12409.5778,E,1,,,16.1,M,,M,,*58
$GPRMC,182008.0,A,2420.0363,N,12409.5778,E,,,290423,,*0F
$GPGGA,182038.0,2420.0364,N,12409.5777,E,1,,,15.3,M,,M,,*52
$GPRMC,182038.0,A,2420.0364,N,12409.5777,E,,,290423,,*04
$GPGGA,182108.1,2420.0364,N,12409.5777,E,1,,,14.8,M,,M,,*5B
$GPRMC,182108.1,A,2420.0364,N,12409.5777,E,,,290423,,*07
$GPGGA,182138.0,2420.0363,N,12409.5779,E,1,,,15.1,M,,M,,*58
$GPRMC,182138.0,A,2420.0363,N,12409.5779,E,,,290423,,*0C
$GPGGA,182208.0,2420.0361,N,12409.5794,E,1,,,16.1,M,,M,,*5A
$GPRMC,182208.0,A,2420.0361,N,12409.5794,E,,,290423,,*0D
$GPGGA,182238.0,2420.0360,N,12409.5795,E,1,,,18.5,M,,M,,*53
$GPRMC,182238.0,A,2420.0360,N,12409.5795,E,,,290423,,*0E
$GPGGA,182308.0,2420.0360,N,12409.5796,E,1,,,19.5,M,,M,,*53
$GPRMC,182308.0,A,2420.0360,N,12409.5796,E,,,290423,,*0F
$GPGGA,182338.0,2420.0361,N,12409.5795,E,1,,,17.7,M,,M,,*5E
$GPRMC,182338.0,A,2420.0361,N,12409.5795,E,,,290423,,*0E
$GPGGA,182408.0,2420.0363,N,12409.5793,E,1,,,13.4,M,,M,,*59
$GPRMC,182408.0,A,2420.0363,N,12409.5793,E,,,290423,,*0E
$GPGGA,182438.0,2420.0366,N,12409.5792,E,1,,,7.8,M,,M,,*67
$GPRMC,182438.0,A,2420.0366,N,12409.5792,E,,,290423,,*09
$GPGGA,182508.0,2420.0370,N,12409.5789,E,1,,,2.5,M,,M,,*60
$GPRMC,182508.0,A,2420.0370,N,12409.5789,E,,,290423,,*06
$GPGGA,182538.0,2420.0374,N,12409.5787,E,1,,,-2.3,M,,M,,*42
$GPRMC,182538.0,A,2420.0374,N,12409.5787,E,,,290423,,*0F
$GPGGA,182608.0,2420.0377,N,12409.5785,E,1,,,-6.0,M,,M,,*44
$GPRMC,182608.0,A,2420.0377,N,12409.5785,E,,,290423,,*0E
$GPGGA,182638.0,2420.0380,N,12409.5784,E,1,,,-9.1,M,,M,,*40
$GPRMC,182638.0,A,2420.0380,N,12409.5784,E,,,290423,,*04
$GPGGA,182708.0,2420.0384,N,12409.5782,E,1,,,-11.5,M,,M,,*7D
$GPRMC,182708.0,A,2420.0384,N,12409.5782,E,,,290423,,*04
$GPGGA,182738.0,2420.0403,N,12409.5766,E,1,,,-14.1,M,,M,,*7D
$GPRMC,182738.0,A,2420.0403,N,12409.5766,E,,,290423,,*05
$GPGGA,182808.0,2420.0405,N,12409.5765,E,1,,,-19.0,M,,M,,*78
$GPRMC,182808.0,A,2420.0405,N,12409.5765,E,,,290423,,*0C
$GPGGA,182838.0,2420.0406,N,12409.5764,E,1,,,-19.2,M,,M,,*7B
$GPRMC,182838.0,A,2420.0406,N,12409.5764,E,,,290423,,*0D
$GPGGA,182908.0,2420.0406,N,12409.5762,E,1,,,-17.5,M,,M,,*76
$GPRMC,182908.0,A,2420.0406,N,12409.5762,E,,,290423,,*09
$GPGGA,182938.0,2420.0407,N,12409.5760,E,1,,,-17.3,M,,M,,*70
$GPRMC,182938.0,A,2420.0407,N,12409.5760,E,,,290423,,*09
$GPGGA,183008.0,2420.0407,N,12409.5760,E,1,,,-18.7,M,,M,,*70
$GPRMC,183008.0,A,2420.0407,N,12409.5760,E,,,290423,,*02
$GPGGA,183038.0,2420.0394,N,12409.5775,E,1,,,-25.9,M,,M,,*7A
$GPRMC,183038.0,A,2420.0394,N,12409.5775,E,,,290423,,*08
$GPGGA,183108.0,2420.0393,N,12409.5774,E,1,,,-27.6,M,,M,,*73
$GPRMC,183108.0,A,2420.0393,N,12409.5774,E,,,290423,,*0C
$GPGGA,183138.0,2420.0394,N,12409.5772,E,1,,,-24.7,M,,M,,*73
$GPRMC,183138.0,A,2420.0394,N,12409.5772,E,,,290423,,*0E
$GPGGA,183208.0,2420.0394,N,12409.5769,E,1,,,-20.5,M,,M,,*7F
$GPRMC,183208.0,A,2420.0394,N,12409.5769,E,,,290423,,*04
$GPGGA,183238.0,2420.0395,N,12409.5767,E,1,,,-18.7,M,,M,,*7A
$GPRMC,183238.0,A,2420.0395,N,12409.5767,E,,,290423,,*08
$GPGGA,183308.0,2420.0396,N,12409.5765,E,1,,,-17.9,M,,M,,*78
$GPRMC,183308.0,A,2420.0396,N,12409.5765,E,,,290423,,*0B
$GPGGA,183338.0,2420.0357,N,12409.5759,E,1,,,0.6,M,,M,,*6D
$GPRMC,183338.0,A,2420.0357,N,12409.5759,E,,,290423,,*0A
$GPGGA,183408.0,2420.0354,N,12409.5759,E,1,,,-9.8,M,,M,,*40
$GPRMC,183408.0,A,2420.0354,N,12409.5759,E,,,290423,,*0D
$GPGGA,183438.1,2420.0357,N,12409.5757,E,1,,,-15.2,M,,M,,*78
$GPRMC,183438.1,A,2420.0357,N,12409.5757,E,,,290423,,*02
$GPGGA,183508.0,2420.0358,N,12409.5758,E,1,,,-14.6,M,,M,,*7E
$GPRMC,183508.0,A,2420.0358,N,12409.5758,E,,,290423,,*01
$GPGGA,183538.0,2420.0359,N,12409.5760,E,1,,,-14.1,M,,M,,*70
$GPRMC,183538.0,A,2420.0359,N,12409.5760,E,,,290423,,*08
$GPGGA,183608.0,2420.0357,N,12409.5761,E,1,,,-7.6,M,,M,,*4A
$GPRMC,183608.0,A,2420.0357,N,12409.5761,E,,,290423,,*07
$GPGGA,183638.0,2420.0355,N,12409.5760,E,1,,,-2.4,M,,M,,*4D
$GPRMC,183638.0,A,2420.0355,N,12409.5760,E,,,290423,,*07
$GPGGA,183708.0,2420.0355,N,12409.5758,E,1,,,-1.0,M,,M,,*43
$GPRMC,183708.0,A,2420.0355,N,12409.5758,E,,,290423,,*0E
$GPGGA,183738.0,2420.0360,N,12409.5756,E,1,,,-5.0,M,,M,,*4C
$GPRMC,183738.0,A,2420.0360,N,12409.5756,E,,,290423,,*05
$GPGGA,183808.0,2420.0364,N,12409.5754,E,1,,,-8.1,M,,M,,*4A
$GPRMC,183808.0,A,2420.0364,N,12409.5754,E,,,290423,,*0F
$GPGGA,183838.0,2420.0365,N,12409.5753,E,1,,,-7.1,M,,M,,*40
$GPRMC,183838.0,A,2420.0365,N,12409.5753,E,,,290423,,*0A
$GPGGA,183908.0,2420.0365,N,12409.5752,E,1,,,-4.8,M,,M,,*49
$GPRMC,183908.0,A,2420.0365,N,12409.5752,E,,,290423,,*09
$GPGGA,183938.0,2420.0365,N,12409.5752,E,1,,,-3.0,M,,M,,*45
$GPRMC,183938.0,A,2420.0365,N,12409.5752,E,,,290423,,*0A
$GPGGA,184008.0,2420.0367,N,12409.5750,E,1,,,-4.1,M,,M,,*4E
$GPRMC,184008.0,A,2420.0367,N,12409.5750,E,,,290423,,*07
$GPGGA,184038.0,2420.0369,N,12409.5750,E,1,,,-4.8,M,,M,,*4A
$GPRMC,184038.0,A,2420.0369,N,12409.5750,E,,,290423,,*0A
$GPGGA,184108.0,2420.0371,N,12409.5749,E,1,,,-4.6,M,,M,,*47
$GPRMC,184108.0,A,2420.0371,N,12409.5749,E,,,290423,,*09
$GPGGA,184138.0,2420.0373,N,12409.5748,E,1,,,-5.4,M,,M,,*44
$GPRMC,184138.0,A,2420.0373,N,12409.5748,E,,,290423,,*09
$GPGGA,184208.0,2420.0375,N,12409.5747,E,1,,,-6.6,M,,M,,*4C
$GPRMC,184208.0,A,2420.0375,N,12409.5747,E,,,290423,,*00
$GPGGA,184238.0,2420.0378,N,12409.5746,E,1,,,-6.5,M,,M,,*40
$GPRMC,184238.0,A,2420.0378,N,12409.5746,E,,,290423,,*0F
$GPGGA,184308.0,2420.0379,N,12409.5745,E,1,,,-6.2,M,,M,,*47
$GPRMC,184308.0,A,2420.0379,N,12409.5745,E,,,290423,,*0F
$GPGGA,184338.0,2420.0380,N,12409.5744,E,1,,,-6.5,M,,M,,*44
$GPRMC,184338.0,A,2420.0380,N,12409.5744,E,,,290423,,*0B
$GPGGA,184408.0,2420.0381,N,12409.5743,E,1,,,-7.0,M,,M,,*42
$GPRMC,184408.0,A,2420.0381,N,12409.5743,E,,,290423,,*09
$GPGGA,184438.0,2420.0382,N,12409.5744,E,1,,,-7.4,M,,M,,*41
$GPRMC,184438.0,A,2420.0382,N,12409.5744,E,,,290423,,*0E
$GPGGA,184508.0,2420.0382,N,12409.5743,E,1,,,-7.9,M,,M,,*49
$GPRMC,184508.0,A,2420.0382,N,12409.5743,E,,,290423,,*0B
$GPGGA,184538.0,2420.0377,N,12409.5710,E,1,,,-2.5,M,,M,,*4F
$GPRMC,184538.0,A,2420.0377,N,12409.5710,E,,,290423,,*04
$GPGGA,184608.0,2420.0376,N,12409.5710,E,1,,,7.6,M,,M,,*65
$GPRMC,184608.0,A,2420.0376,N,12409.5710,E,,,290423,,*05
$GPGGA,184638.0,2420.0377,N,12409.5709,E,1,,,7.3,M,,M,,*6A
$GPRMC,184638.0,A,2420.0377,N,12409.5709,E,,,290423,,*0F
$GPGGA,184708.0,2420.0380,N,12409.5708,E,1,,,6.6,M,,M,,*65
$GPRMC,184708.0,A,2420.0380,N,12409.5708,E,,,290423,,*04
$GPGGA,184738.0,2420.0381,N,12409.5708,E,1,,,7.4,M,,M,,*64
$GPRMC,184738.0,A,2420.0381,N,12409.5708,E,,,290423,,*06
$GPGGA,184808.0,2420.0383,N,12409.5707,E,1,,,5.7,M,,M,,*64
$GPRMC,184808.0,A,2420.0383,N,12409.5707,E,,,290423,,*07
$GPGGA,184838.0,2420.0385,N,12409.5707,E,1,,,5.3,M,,M,,*65
$GPRMC,184838.0,A,2420.0385,N,12409.5707,E,,,290423,,*02
$GPGGA,184908.0,2420.0387,N,12409.5706,E,1,,,4.7,M,,M,,*61
$GPRMC,184908.0,A,2420.0387,N,12409.5706,E,,,290423,,*03
$GPGGA,184938.0,2420.0390,N,12409.5706,E,1,,,3.7,M,,M,,*63
$GPRMC,184938.0,A,2420.0390,N,12409.5706,E,,,290423,,*06
$GPGGA,185008.0,2420.0391,N,12409.5705,E,1,,,4.7,M,,M,,*6D
$GPRMC,185008.0,A,2420.0391,N,12409.5705,E,,,290423,,*0F
$GPGGA,185038.0,2420.0393,N,12409.5705,E,1,,,4.9,M,,M,,*62
$GPRMC,185038.0,A,2420.0393,N,12409.5705,E,,,290423,,*0E
$GPGGA,185108.0,2420.0395,N,12409.5705,E,1,,,3.6,M,,M,,*6E
$GPRMC,185108.0,A,2420.0395,N,12409.5705,E,,,290423,,*0A
$GPGGA,185138.0,2420.0398,N,12409.5705,E,1,,,2.9,M,,M,,*6E
$GPRMC,185138.0,A,2420.0398,N,12409.5705,E,,,290423,,*04
$GPGGA,185208.0,2420.0399,N,12409.5704,E,1,,,5.0,M,,M,,*60
$GPRMC,185208.0,A,2420.0399,N,12409.5704,E,,,290423,,*04
$GPGGA,185238.0,2420.0399,N,12409.5704,E,1,,,5.3,M,,M,,*60
$GPRMC,185238.0,A,2420.0399,N,12409.5704,E,,,290423,,*07
$GPGGA,185308.0,2420.0401,N,12409.5703,E,1,,,7.4,M,,M,,*66
$GPRMC,185308.0,A,2420.0401,N,12409.5703,E,,,290423,,*04
$GPGGA,185338.0,2420.0402,N,12409.5702,E,1,,,9.9,M,,M,,*64
$GPRMC,185338.0,A,2420.0402,N,12409.5702,E,,,290423,,*05
$GPGGA,185408.0,2420.0402,N,12409.5701,E,1,,,13.9,M,,M,,*58
$GPRMC,185408.0,A,2420.0402,N,12409.5701,E,,,290423,,*02
$GPGGA,185438.0,2420.0403,N,12409.5697,E,1,,,20.0,M,,M,,*5D
$GPRMC,185438.0,A,2420.0403,N,12409.5697,E,,,290423,,*0E
$GPGGA,185508.0,2420.0410,N,12409.5700,E,1,,,9.1,M,,M,,*68
$GPRMC,185508.0,A,2420.0410,N,12409.5700,E,,,290423,,*01
$GPGGA,185538.0,2420.0410,N,12409.5700,E,1,,,9.8,M,,M,,*62
$GPRMC,185538.0,A,2420.0410,N,12409.5700,E,,,290423,,*02
$GPGGA,185608.2,2420.0410,N,12409.5699,E,1,,,11.4,M,,M,,*54
$GPRMC,185608.2,A,2420.0410,N,12409.5699,E,,,290423,,*01
$GPGGA,185638.0,2420.0409,N,12409.5698,E,1,,,8.4,M,,M,,*64
$GPRMC,185638.0,A,2420.0409,N,12409.5698,E,,,290423,,*09
$GPGGA,185708.0,2420.0407,N,12409.5700,E,1,,,13.8,M,,M,,*5E
$GPRMC,185708.0,A,2420.0407,N,12409.5700,E,,,290423,,*05
$GPGGA,185738.0,2420.0406,N,12409.5701,E,1,,,14.2,M,,M,,*50
$GPRMC,185738.0,A,2420.0406,N,12409.5701,E,,,290423,,*06
$GPGGA,185808.2,2420.0407,N,12409.5702,E,1,,,11.8,M,,M,,*53
$GPRMC,185808.2,A,2420.0407,N,12409.5702,E,,,290423,,*0A
$GPGGA,185838.0,2420.0412,N,12409.5710,E,1,,,11.0,M,,M,,*5D
$GPRMC,185838.0,A,2420.0412,N,12409.5710,E,,,290423,,*0C
$GPGGA,185908.0,2420.0417,N,12409.5716,E,1,,,5.6,M,,M,,*6F
$GPRMC,185908.0,A,2420.0417,N,12409.5716,E,,,290423,,*0D
$GPGGA,185938.0,2420.0417,N,12409.5716,E,1,,,9.8,M,,M,,*6E
$GPRMC,185938.0,A,2420.0417,N,12409.5716,E,,,290423,,*0E
$GPGGA,190008.0,2420.0417,N,12409.5715,E,1,,,8.0,M,,M,,*6A
$GPRMC,190008.0,A,2420.0417,N,12409.5715,E,,,290423,,*03
$GPGGA,190038.0,2420.0418,N,12409.5714,E,1,,,11.3,M,,M,,*5C
$GPRMC,190038.0,A,2420.0418,N,12409.5714,E,,,290423,,*0E
$GPGGA,190108.0,2420.0419,N,12409.5713,E,1,,,14.8,M,,M,,*56
$GPRMC,190108.0,A,2420.0419,N,12409.5713,E,,,290423,,*0A
$GPGGA,190138.0,2420.0417,N,12409.5712,E,1,,,22.1,M,,M,,*56
$GPRMC,190138.0,A,2420.0417,N,12409.5712,E,,,290423,,*06
$GPGGA,190208.0,2420.0413,N,12409.5701,E,1,,,33.0,M,,M,,*51
$GPRMC,190208.0,A,2420.0413,N,12409.5701,E,,,290423,,*00
$GPGGA,190238.0,2420.0413,N,12409.5699,E,1,,,37.8,M,,M,,*5E
$GPRMC,190238.0,A,2420.0413,N,12409.5699,E,,,290423,,*03
$GPGGA,190308.0,2420.0413,N,12409.5700,E,1,,,37.5,M,,M,,*50
$GPRMC,190308.0,A,2420.0413,N,12409.5700,E,,,290423,,*00
$GPGGA,190338.0,2420.0412,N,12409.5700,E,1,,,40.7,M,,M,,*50
$GPRMC,190338.0,A,2420.0412,N,12409.5700,E,,,290423,,*02
$GPGGA,190408.0,2420.0412,N,12409.5701,E,1,,,41.6,M,,M,,*55
$GPRMC,190408.0,A,2420.0412,N,12409.5701,E,,,290423,,*07
$GPGGA,190438.0,2420.0412,N,12409.5701,E,1,,,41.6,M,,M,,*56
$GPRMC,190438.0,A,2420.0412,N,12409.5701,E,,,290423,,*04
$GPGGA,190508.0,2420.0413,N,12409.5702,E,1,,,40.9,M,,M,,*58
$GPRMC,190508.0,A,2420.0413,N,12409.5702,E,,,290423,,*04
$GPGGA,190538.0,2420.0412,N,12409.5703,E,1,,,36.7,M,,M,,*54
$GPRMC,190538.0,A,2420.0412,N,12409.5703,E,,,290423,,*07
$GPGGA,190608.0,2420.0411,N,12409.5706,E,1,,,31.9,M,,M,,*5B
$GPRMC,190608.0,A,2420.0411,N,12409.5706,E,,,290423,,*01
$GPGGA,190638.3,2420.0400,N,12409.5740,E,1,,,28.1,M,,M,,*59
$GPRMC,190638.3,A,2420.0400,N,12409.5740,E,,,290423,,*03
$GPGGA,190708.0,2420.0395,N,12409.5746,E,1,,,26.6,M,,M,,*5C
$GPRMC,190708.0,A,2420.0395,N,12409.5746,E,,,290423,,*0F
$GPGGA,190738.3,2420.0387,N,12409.5778,E,1,,,21.7,M,,M,,*54
$GPRMC,190738.3,A,2420.0387,N,12409.5778,E,,,290423,,*01
$GPGGA,190808.0,2420.0388,N,12409.5788,E,1,,,16.9,M,,M,,*51
$GPRMC,190808.0,A,2420.0388,N,12409.5788,E,,,290423,,*0E
$GPGGA,190838.0,2420.0386,N,12409.5795,E,1,,,15.9,M,,M,,*53
$GPRMC,190838.0,A,2420.0386,N,12409.5795,E,,,290423,,*0F
$GPGGA,190908.0,2420.0385,N,12409.5798,E,1,,,16.3,M,,M,,*56
$GPRMC,190908.0,A,2420.0385,N,12409.5798,E,,,290423,,*03
$GPGGA,190938.0,2420.0385,N,12409.5802,E,1,,,15.2,M,,M,,*5B
$GPRMC,190938.0,A,2420.0385,N,12409.5802,E,,,290423,,*0C
$GPGGA,191008.0,2420.0385,N,12409.5803,E,1,,,13.7,M,,M,,*52
$GPRMC,191008.0,A,2420.0385,N,12409.5803,E,,,290423,,*06
$GPGGA,191038.0,2420.0385,N,12409.5804,E,1,,,14.3,M,,M,,*55
$GPRMC,191038.0,A,2420.0385,N,12409.5804,E,,,290423,,*02
$GPGGA,191108.0,2420.0371,N,12409.5811,E,1,,,20.2,M,,M,,*5E
$GPRMC,191108.0,A,2420.0371,N,12409.5811,E,,,290423,,*0F
$GPGGA,191138.0,2420.0383,N,12409.5830,E,1,,,16.7,M,,M,,*53
$GPRMC,191138.0,A,2420.0383,N,12409.5830,E,,,290423,,*02
$GPGGA,191208.0,2420.0383,N,12409.5830,E,1,,,8.2,M,,M,,*69
$GPRMC,191208.0,A,2420.0383,N,12409.5830,E,,,290423,,*02
$GPGGA,191238.0,2420.0384,N,12409.5829,E,1,,,6.3,M,,M,,*6A
$GPRMC,191238.0,A,2420.0384,N,12409.5829,E,,,290423,,*0E
